[{"business_status": "OPERATIONAL", "geometry": {"location": {"lat": 25.0308284, "lng": 121.5295899}, "viewport": {"northeast": {"lat": 25.0321771302915, "lng": 121.5309129302915}, "southwest": {"lat": 25.0294791697085, "lng": 121.5282149697085}}}, "icon": "https://maps.gstatic.com/mapfiles/place_api/icons/v1/png_71/restaurant-71.png", "icon_background_color": "#FF9E67", "icon_mask_base_uri": "https://maps.gstatic.com/mapfiles/place_api/icons/v2/restaurant_pinlet", "name": "紅蜻蜓食事處", "opening_hours": {"open_now": false}, "photos": [{"height": 4080, "html_attributions": ["<a href=\"https://maps.google.com/maps/contrib/113281373333254214697\">Dawei Lin</a>"], "photo_reference": "AZose0lNlAiwJ09-dRwgTzArI6juFzua6EUSPq4y8D6bsu1w6WinUhUFfCX2A_zA5zuHTfZ7g7MGfXzEf4MsTDDXOuS5forqIkf6IXsA7T-n136Q17DCwCSgiU1SGR2gieIaoViH9q0_nn3iEIZXOgXYhpBhOGIa-he0XPU-mQZ3kHp7wD4m", "width": 3072}], "place_id": "ChIJT_qVvoOpQjQR0lNQZ4pe94U", "plus_code": {"compound_code": "2GJH+8R 台灣台北市大安區", "global_code": "7QQ32GJH+8R"}, "price_level": 2, "rating": 3.8, "reference": "ChIJT_qVvoOpQjQR0lNQZ4pe94U", "scope": "GOOGLE", "types": ["restaurant", "food", "point_of_interest", "establishment"], "user_ratings_total": 550, "vicinity": "大安區永康街35之1號"}, {"business_status": "OPERATIONAL", "geometry": {"location": {"lat": 25.0329387, "lng": 121.5303821}, "viewport": {"northeast": {"lat": 25.0343023302915, "lng": 121.5317660802915}, "southwest": {"lat": 25.0316043697085, "lng": 121.5290681197085}}}, "icon": "https://maps.gstatic.com/mapfiles/place_api/icons/v1/png_71/restaurant-71.png", "icon_background_color": "#FF9E67", "icon_mask_base_uri": "https://maps.gstatic.com/mapfiles/place_api/icons/v2/restaurant_pinlet", "name": "Focus kitchen肯恩廚房", "opening_hours": {"open_now": false}, "photos": [{"height": 534, "html_attributions": ["<a href=\"https://maps.google.com/maps/contrib/113089202169041948147\">Focus kitchen肯恩廚房</a>"], "photo_reference": "AZose0m4boJi7zyXcg-PZK1GornCSNoKzjlWdMyoe8x8CbMBS7DP7IADmBWaON4NjIrABYFm210260jEhmNXg1xJ7EX9TpRIO13xphu9tRGnRlUAmNXNq8bUBB8gzxPj8ZH-CkmDcGFbpa1Tn9ppb2tS1_FtcSmCNQHiqAROoF6YfHEY9FPP", "width": 800}], "place_id": "ChIJ8eWRPYKpQjQRuXQ3tGY9wKo", "plus_code": {"compound_code": "2GMJ+55 台灣台北市大安區", "global_code": "7QQ32GMJ+55"}, "price_level": 2, "rating": 4.3, "reference": "ChIJ8eWRPYKpQjQRuXQ3tGY9wKo", "scope": "GOOGLE", "types": ["restaurant", "food", "point_of_interest", "establishment"], "user_ratings_total": 2339, "vicinity": "大安區信義路二段198巷6號"}, {"business_status": "OPERATIONAL", "geometry": {"location": {"lat": 25.0238934, "lng": 121.5344482}, "viewport": {"northeast": {"lat": 25.0252377802915, "lng": 121.5358479802915}, "southwest": {"lat": 25.0225398197085, "lng": 121.5331500197085}}}, "icon": "https://maps.gstatic.com/mapfiles/place_api/icons/v1/png_71/restaurant-71.png", "icon_background_color": "#FF9E67", "icon_mask_base_uri": "https://maps.gstatic.com/mapfiles/place_api/icons/v2/restaurant_pinlet", "name": "莫宰羊-大安台大店", "opening_hours": {"open_now": false}, "photos": [{"height": 1108, "html_attributions": ["<a href=\"https://maps.google.com/maps/contrib/105974627668361899999\">莫宰羊-大安台大店</a>"], "photo_reference": "AZose0n7nmV7Icar6O2FBbzc8tYuUXph2w1mwqb8sWQtbcIVlbHbJ1bs8FldCl_OHuwp1uz53BSNrDoqBfsz-vgiS8Z8coB-yZmOzJ_sdvjOxmdaJZ8082NpiDEFvUrm4qUQ18y8fvwA_LAJGd5aDF8p1gljkIn9aDA5-ggO6I_kMDdgvqTr", "width": 1478}], "place_id": "ChIJ3xl5zIepQjQRGNQknIunDIs", "plus_code": {"compound_code": "2GFM+HQ 台灣台北市大安區", "global_code": "7QQ32GFM+HQ"}, "price_level": 2, "rating": 4.2, "reference": "ChIJ3xl5zIepQjQRGNQknIunDIs", "scope": "GOOGLE", "types": ["restaurant", "food", "point_of_interest", "establishment"], "user_ratings_total": 2719, "vicinity": "大安區新生南路三段28號"}, {"business_status": "OPERATIONAL", "geometry": {"location": {"lat": 25.0219485, "lng": 121.5271421}, "viewport": {"northeast": {"lat": 25.02324173029151, "lng": 121.5284337802915}, "southwest": {"lat": 25.0205437697085, "lng": 121.5257358197085}}}, "icon": "https://maps.gstatic.com/mapfiles/place_api/icons/v1/png_71/restaurant-71.png", "icon_background_color": "#FF9E67", "icon_mask_base_uri": "https://maps.gstatic.com/mapfiles/place_api/icons/v2/restaurant_pinlet", "name": "龍涎居雞膳食坊 師大創始店", "opening_hours": {"open_now": false}, "photos": [{"height": 3024, "html_attributions": ["<a href=\"https://maps.google.com/maps/contrib/117161015492918603087\">James Huang</a>"], "photo_reference": "AZose0mGRc058ZloaUcZdG5bQGZOE6q8p9EypHlqEHyyXU80aKpo2KQ3BGEfygS1gUxYmoZDNbN_VqWuHICFnarNFAzmXn6fBYB8C5jRvVUdaHKTP6L-uitK-HfqUMt1MjDdUrVwm3j7yUxCS9js490LHkrBRx_qQtob9P6sq7iSQgXEkDhh", "width": 4032}], "place_id": "ChIJD_HEZY-pQjQRRtBtmpSmIX8", "plus_code": {"compound_code": "2GCG+QV 台灣台北市大安區", "global_code": "7QQ32GCG+QV"}, "price_level": 2, "rating": 3.8, "reference": "ChIJD_HEZY-pQjQRRtBtmpSmIX8", "scope": "GOOGLE", "types": ["restaurant", "food", "point_of_interest", "establishment"], "user_ratings_total": 835, "vicinity": "大安區羅斯福路三段135號"}, {"business_status": "OPERATIONAL", "geometry": {"location": {"lat": 25.028911, "lng": 121.521357}, "viewport": {"northeast": {"lat": 25.0302128302915, "lng": 121.5226291802915}, "southwest": {"lat": 25.02751486970849, "lng": 121.5199312197085}}}, "icon": "https://maps.gstatic.com/mapfiles/place_api/icons/v1/png_71/restaurant-71.png", "icon_background_color": "#FF9E67", "icon_mask_base_uri": "https://maps.gstatic.com/mapfiles/place_api/icons/v2/restaurant_pinlet", "name": "王品牛排 台北羅斯福店", "opening_hours": {"open_now": false}, "photos": [{"height": 1441, "html_attributions": ["<a href=\"https://maps.google.com/maps/contrib/106777619287197277317\">王品牛排 台北羅斯福店</a>"], "photo_reference": "AZose0lnKO5vUyaOpIxmc4vPMWfXOLhSo7DpGwDf6uRgGMIu5KuLY-oJiXgJXzyxUUll0q7eilDMh3mUes4nAhn-t1uf_LxKyQBfbpwZIlwQfPyzTjM5IEtFHxZYTPMNxPQ4M9QTBuCyee55LZFnz44bfKiMySqfOeRJ7zYpgS9tbhYOyL0M", "width": 2560}], "place_id": "ChIJwXTajYapQjQRiiVNmhlyrNk", "plus_code": {"compound_code": "2GHC+HG 台灣台北市中正區", "global_code": "7QQ32GHC+HG"}, "price_level": 3, "rating": 4.7, "reference": "ChIJwXTajYapQjQRiiVNmhlyrNk", "scope": "GOOGLE", "types": ["restaurant", "food", "point_of_interest", "establishment"], "user_ratings_total": 3788, "vicinity": "中正區羅斯福路二段9號"}, {"business_status": "OPERATIONAL", "geometry": {"location": {"lat": 25.0232492, "lng": 121.5280963}, "viewport": {"northeast": {"lat": 25.02463738029151, "lng": 121.5294494302915}, "southwest": {"lat": 25.0219394197085, "lng": 121.5267514697085}}}, "icon": "https://maps.gstatic.com/mapfiles/place_api/icons/v1/png_71/restaurant-71.png", "icon_background_color": "#FF9E67", "icon_mask_base_uri": "https://maps.gstatic.com/mapfiles/place_api/icons/v2/restaurant_pinlet", "name": "Vino Vino Caf'e", "opening_hours": {"open_now": true}, "photos": [{"height": 3024, "html_attributions": ["<a href=\"https://maps.google.com/maps/contrib/101297538489290802307\">Crystal 心綺</a>"], "photo_reference": "AZose0ljBPbTEkgIP4uZr-PfgZhNBt7Kl85Ec-gwbCpWB5e9tjzgKqUlicuhRdh9EtqdQ8ECelOfmZk2cfzl5ccd7yC5d-SqOc4rPSdJdGSSdhmppwzlY4Mp8LNyQKmzfUMUiFbGgpy9n62AQIUDhCViruSZacuR-JF64n33WSxTFDUYereV", "width": 4032}], "place_id": "ChIJYwytno-pQjQRKSSTLHtRuhY", "plus_code": {"compound_code": "2GFH+76 台灣台北市大安區", "global_code": "7QQ32GFH+76"}, "price_level": 2, "rating": 3.6, "reference": "ChIJYwytno-pQjQRKSSTLHtRuhY", "scope": "GOOGLE", "types": ["restaurant", "food", "point_of_interest", "establishment"], "user_ratings_total": 551, "vicinity": "大安區師大路80巷2號"}, {"business_status": "OPERATIONAL", "geometry": {"location": {"lat": 25.0217776, "lng": 121.5280121}, "viewport": {"northeast": {"lat": 25.02317273029151, "lng": 121.5293922302915}, "southwest": {"lat": 25.0204747697085, "lng": 121.5266942697085}}}, "icon": "https://maps.gstatic.com/mapfiles/place_api/icons/v1/png_71/restaurant-71.png", "icon_background_color": "#FF9E67", "icon_mask_base_uri": "https://maps.gstatic.com/mapfiles/place_api/icons/v2/restaurant_pinlet", "name": "KGB Kiwi Gourmet Burgers", "opening_hours": {"open_now": false}, "photos": [{"height": 816, "html_attributions": ["<a href=\"https://maps.google.com/maps/contrib/118253750421803979454\">KGB Kiwi Gourmet Burgers</a>"], "photo_reference": "AZose0lpRxDGT4iSMijv1BcU6KMDEMnlLpYqWRwl-HIpF1zGBzOquYW2-J_dxxCFD2zjdj8HuNyFtAWcgTAm8Qp9GOT6xKKtx8q9b0siTzRCkdLj1MEiY-5-muiX3K2PAg9C45dqE-zCEwRqf0X4WTjO5MHY3B0Iy5p8o5H0X8eQGBIbR22b", "width": 1632}], "place_id": "ChIJNTAArY-pQjQR0G-DgiWp9dc", "plus_code": {"compound_code": "2GCH+P6 台灣台北市大安區", "global_code": "7QQ32GCH+P6"}, "price_level": 2, "rating": 4.1, "reference": "ChIJNTAArY-pQjQR0G-DgiWp9dc", "scope": "GOOGLE", "types": ["restaurant", "food", "point_of_interest", "establishment"], "user_ratings_total": 1413, "vicinity": "大安區師大路114巷5號"}, {"business_status": "OPERATIONAL", "geometry": {"location": {"lat": 25.027535, "lng": 121.522371}, "viewport": {"northeast": {"lat": 25.02881208029151, "lng": 121.5236660802915}, "southwest": {"lat": 25.0261141197085, "lng": 121.5209681197085}}}, "icon": "https://maps.gstatic.com/mapfiles/place_api/icons/v1/png_71/restaurant-71.png", "icon_background_color": "#FF9E67", "icon_mask_base_uri": "https://maps.gstatic.com/mapfiles/place_api/icons/v2/restaurant_pinlet", "name": "麥當勞-羅斯福餐廳", "opening_hours": {"open_now": false}, "photos": [{"height": 3024, "html_attributions": ["<a href=\"https://maps.google.com/maps/contrib/103714456755345789855\">A-Kwon Fang</a>"], "photo_reference": "AZose0kVZjIk_wNEGFCP7Z8S47RskHZPU4L5ns-RbXXq8siQgUm7965MvptyuDwbX-cd_6QI-6LNta16h2oBdy0qXxuj9-Uq8fvEYy4nuU4pmvSj-ZVRipcSOFr9L6U5ESr_gWRKg7VLoy2yXblmzUW9nghBzW8BrWSYvslZYDtF6ngf7gbD", "width": 4032}], "place_id": "ChIJWdQlWpqpQjQRGp8WGVvaLCg", "plus_code": {"compound_code": "2GHC+2W 台灣台北市大安區", "global_code": "7QQ32GHC+2W"}, "price_level": 1, "rating": 3.9, "reference": "ChIJWdQlWpqpQjQRGp8WGVvaLCg", "scope": "GOOGLE", "types": ["restaurant", "food", "point_of_interest", "establishment"], "user_ratings_total": 3736, "vicinity": "大安區羅斯福路二段45號"}, {"business_status": "OPERATIONAL", "geometry": {"location": {"lat": 25.0291957, "lng": 121.5297393}, "viewport": {"northeast": {"lat": 25.0305438302915, "lng": 121.5310652302915}, "southwest": {"lat": 25.0278458697085, "lng": 121.5283672697085}}}, "icon": "https://maps.gstatic.com/mapfiles/place_api/icons/v1/png_71/restaurant-71.png", "icon_background_color": "#FF9E67", "icon_mask_base_uri": "https://maps.gstatic.com/mapfiles/place_api/icons/v2/restaurant_pinlet", "name": "大隱酒食", "opening_hours": {"open_now": false}, "photos": [{"height": 3468, "html_attributions": ["<a href=\"https://maps.google.com/maps/contrib/115273370343630040147\">高速公路</a>"], "photo_reference": "AZose0knQjrs76mL-laDNKW9UuZURmH9zN9p6f38foX6ELqwF2Xdn5taKE6e7aDvocireV-ww33cimRtrU54tjMZcbJ5LFuhiWTsLXdtFIR23uZzcLUxC38cRVF440yZfpkuyKQPem5sDYlAIXcEmVU72OqGjzfBH9V9ktMTF_ZLlQchxLAh", "width": 4624}], "place_id": "ChIJzeBtdYSpQjQRop5qz3tZxW0", "plus_code": {"compound_code": "2GHH+MV 台灣台北市大安區", "global_code": "7QQ32GHH+MV"}, "price_level": 2, "rating": 3.9, "reference": "ChIJzeBtdYSpQjQRop5qz3tZxW0", "scope": "GOOGLE", "types": ["restaurant", "food", "point_of_interest", "establishment"], "user_ratings_total": 490, "vicinity": "大安區永康街65號"}, {"business_status": "OPERATIONAL", "geometry": {"location": {"lat": 25.024613, "lng": 121.534308}, "viewport": {"northeast": {"lat": 25.0259145802915, "lng": 121.5356543802915}, "southwest": {"lat": 25.0232166197085, "lng": 121.5329564197085}}}, "icon": "https://maps.gstatic.com/mapfiles/place_api/icons/v1/png_71/cafe-71.png", "icon_background_color": "#FF9E67", "icon_mask_base_uri": "https://maps.gstatic.com/mapfiles/place_api/icons/v2/cafe_pinlet", "name": "紫藤廬", "opening_hours": {"open_now": false}, "photos": [{"height": 3024, "html_attributions": ["<a href=\"https://maps.google.com/maps/contrib/112722448768181809243\">Angela Chen</a>"], "photo_reference": "AZose0k-3HM5RFhEdkqLbcOhtINVlXfur7Ft7CS3CY0C5RKivxDZdL6T5B11yICxvS7JmTg2uNeIjhpqZr8FqMAFMrBf7WJjU26OfZk7MGF_LmTAlDqOitNzH-Qw1arW7HSmjh0OOWoKFWK79P05Ayys3FP_r_rjW36v0V026MqeKosLuBbN", "width": 4032}], "place_id": "ChIJTW8Gs4epQjQRRA0-FAu_O0k", "plus_code": {"compound_code": "2GFM+RP 台灣台北市大安區", "global_code": "7QQ32GFM+RP"}, "price_level": 2, "rating": 4.2, "reference": "ChIJTW8Gs4epQjQRRA0-FAu_O0k", "scope": "GOOGLE", "types": ["tourist_attraction", "cafe", "restaurant", "food", "point_of_interest", "establishment"], "user_ratings_total": 1657, "vicinity": "大安區新生南路三段16巷1號"}, {"business_status": "OPERATIONAL", "geometry": {"location": {"lat": 25.0320601, "lng": 121.529195}, "viewport": {"northeast": {"lat": 25.0333894802915, "lng": 121.5305405302915}, "southwest": {"lat": 25.0306915197085, "lng": 121.5278425697085}}}, "icon": "https://maps.gstatic.com/mapfiles/place_api/icons/v1/png_71/restaurant-71.png", "icon_background_color": "#FF9E67", "icon_mask_base_uri": "https://maps.gstatic.com/mapfiles/place_api/icons/v2/restaurant_pinlet", "name": "樂麵屋 永康店", "opening_hours": {"open_now": false}, "photos": [{"height": 3024, "html_attributions": ["<a href=\"https://maps.google.com/maps/contrib/111299735760035142103\">Ruby Chen</a>"], "photo_reference": "AZose0ntKTkXSK9arVpAenh39p5jxQ0eIrby00hEur7BCV_btvKac5FI1lMpjGvEjCpIq4vLUyBBeVk7M6SudzYMT38XnstM21EMesQVHjIWKES1kfJK-aR2dKxSKzqZhZ_Di_sDGbojt2-WSTUdzAGhgIWhQ1QjXE9YNUx4ZQN5DVGn6nZO", "width": 4032}], "place_id": "ChIJibxETYKpQjQRqvJwtszA4AA", "plus_code": {"compound_code": "2GJH+RM 台灣台北市大安區", "global_code": "7QQ32GJH+RM"}, "price_level": 2, "rating": 4.2, "reference": "ChIJibxETYKpQjQRqvJwtszA4AA", "scope": "GOOGLE", "types": ["restaurant", "food", "point_of_interest", "establishment"], "user_ratings_total": 2096, "vicinity": "大安區永康街10巷7號"}, {"business_status": "OPERATIONAL", "geometry": {"location": {"lat": 25.0232252, "lng": 121.5268564}, "viewport": {"northeast": {"lat": 25.0245776302915, "lng": 121.5281772802915}, "southwest": {"lat": 25.0218796697085, "lng": 121.5254793197085}}}, "icon": "https://maps.gstatic.com/mapfiles/place_api/icons/v1/png_71/restaurant-71.png", "icon_background_color": "#FF9E67", "icon_mask_base_uri": "https://maps.gstatic.com/mapfiles/place_api/icons/v2/restaurant_pinlet", "name": "瑪莉珍披薩 師大店", "opening_hours": {"open_now": false}, "photos": [{"height": 1124, "html_attributions": ["<a href=\"https://maps.google.com/maps/contrib/116853803191358348482\">Maryjane Pizza ShiDa 瑪莉珍披薩 師大店</a>"], "photo_reference": "AZose0kMi_WWgS1FR_mwEulWUwoCqGt5l7I2TYxM1R_oChXWhHmLbydOYig78IsP4jNj1jNEAeA1Uwb2ljvnU8BhtdiXLlVA4AwqtZ_ELDnRGOxfSOQ0j547qmC1hA1IdDblXIp6jLl_uccaA6iJxKr0t0UWc86ySJt-OwrOQgNF55g3Un1p", "width": 2048}], "place_id": "ChIJHTQHYI-pQjQRqU4LFb5A6pU", "plus_code": {"compound_code": "2GFG+7P 台灣台北市大安區", "global_code": "7QQ32GFG+7P"}, "price_level": 2, "rating": 4.1, "reference": "ChIJHTQHYI-pQjQRqU4LFb5A6pU", "scope": "GOOGLE", "types": ["restaurant", "food", "point_of_interest", "establishment"], "user_ratings_total": 799, "vicinity": "大安區浦城街33-9號"}, {"business_status": "OPERATIONAL", "geometry": {"location": {"lat": 25.0314083, "lng": 121.5291904}, "viewport": {"northeast": {"lat": 25.0327214302915, "lng": 121.5305332802915}, "southwest": {"lat": 25.0300234697085, "lng": 121.5278353197085}}}, "icon": "https://maps.gstatic.com/mapfiles/place_api/icons/v1/png_71/restaurant-71.png", "icon_background_color": "#FF9E67", "icon_mask_base_uri": "https://maps.gstatic.com/mapfiles/place_api/icons/v2/restaurant_pinlet", "name": "徐羅伐韓國料理", "opening_hours": {"open_now": false}, "photos": [{"height": 3064, "html_attributions": ["<a href=\"https://maps.google.com/maps/contrib/117347621100845170199\">Song-yang Tong</a>"], "photo_reference": "AZose0nfsW5-nNDYI_8SPEKcrP54dWH4bv7LYbHCgK37uSfl7PuSnuJWQAZsDTxdiLCke8HwL9ZPS8gDcdwshGfwweVYIboH3KYVRq9n9dKz8Cas2Q6Tr3Msa1E16VdDGlLPGXKSTOmNzI4IEGjL4PPm_DF8MslJlssnUU-zVZ-tNsesqWHr", "width": 4592}], "place_id": "ChIJNWsYsIOpQjQRoUUPLON1ugE", "plus_code": {"compound_code": "2GJH+HM 台灣台北市大安區", "global_code": "7QQ32GJH+HM"}, "price_level": 2, "rating": 3.5, "reference": "ChIJNWsYsIOpQjQRoUUPLON1ugE", "scope": "GOOGLE", "types": ["restaurant", "food", "point_of_interest", "establishment"], "user_ratings_total": 879, "vicinity": "大安區永康街14巷5號"}, {"business_status": "OPERATIONAL", "geometry": {"location": {"lat": 25.030981, "lng": 121.529095}, "viewport": {"northeast": {"lat": 25.0322928802915, "lng": 121.5304495802915}, "southwest": {"lat": 25.0295949197085, "lng": 121.5277516197085}}}, "icon": "https://maps.gstatic.com/mapfiles/place_api/icons/v1/png_71/restaurant-71.png", "icon_background_color": "#FF9E67", "icon_mask_base_uri": "https://maps.gstatic.com/mapfiles/place_api/icons/v2/restaurant_pinlet", "name": "游壽司麗水店", "opening_hours": {"open_now": false}, "photos": [{"height": 3072, "html_attributions": ["<a href=\"https://maps.google.com/maps/contrib/114632031115996514090\">Ling</a>"], "photo_reference": "AZose0le_sWc503Ngg4zk0KhiQ95yekLDgQncyynKhay8cp7yN5-U6yL6AEueu14IZCdiDaZDjENNrMOc8Np3JqYbJ2Qaj_2PZx0AB20vKHfiecu6Bfv3DEYGqzLg-lmxV40WfCY0ci8uxN0DEkerdL_SzzJffJ-FhKg67iOvgoLVV4-CEcu", "width": 4080}], "place_id": "ChIJy6vPnYOpQjQROLEuho5E-Fk", "plus_code": {"compound_code": "2GJH+9J 台灣台北市大安區", "global_code": "7QQ32GJH+9J"}, "price_level": 2, "rating": 4.7, "reference": "ChIJy6vPnYOpQjQROLEuho5E-Fk", "scope": "GOOGLE", "types": ["restaurant", "food", "point_of_interest", "establishment"], "user_ratings_total": 1508, "vicinity": "大安區麗水街7巷7號"}, {"business_status": "OPERATIONAL", "geometry": {"location": {"lat": 25.0230301, "lng": 121.5286396}, "viewport": {"northeast": {"lat": 25.0243243302915, "lng": 121.5299832302915}, "southwest": {"lat": 25.0216263697085, "lng": 121.5272852697085}}}, "icon": "https://maps.gstatic.com/mapfiles/place_api/icons/v1/png_71/restaurant-71.png", "icon_background_color": "#FF9E67", "icon_mask_base_uri": "https://maps.gstatic.com/mapfiles/place_api/icons/v2/restaurant_pinlet", "name": "Macho Tacos 瑪丘墨式餅舖 (師大 Shida)", "opening_hours": {"open_now": false}, "photos": [{"height": 2268, "html_attributions": ["<a href=\"https://maps.google.com/maps/contrib/109095761152196233529\">Macho Tacos 瑪丘墨式餅舖 (師大 Shida)</a>"], "photo_reference": "AZose0k1Kg3DNe0L8eU22gN8jtTj_8U-BTx7pi7lPeBEqrmtRT_Zs_9ODIRLK6MYW12ujYTPXDHxWrwM6rczgSPNxEFnrhASnANz6-lYqm9Oy-wU4L0OzcjEsO8ePA6zbkh-G4Cx2Iv-AfgaubsYPOwGgZiXTW6KjqSZ5jJyre4UyST1eKFr", "width": 2268}], "place_id": "ChIJ_68w9Y-pQjQRa2AIDqFvRmc", "plus_code": {"compound_code": "2GFH+6F 台灣台北市大安區", "global_code": "7QQ32GFH+6F"}, "price_level": 2, "rating": 4, "reference": "ChIJ_68w9Y-pQjQRa2AIDqFvRmc", "scope": "GOOGLE", "types": ["restaurant", "food", "point_of_interest", "establishment"], "user_ratings_total": 1562, "vicinity": "大安區師大路93巷1號"}, {"business_status": "OPERATIONAL", "geometry": {"location": {"lat": 25.0245728, "lng": 121.5289434}, "viewport": {"northeast": {"lat": 25.0259651802915, "lng": 121.5302925802915}, "southwest": {"lat": 25.02326721970849, "lng": 121.5275946197085}}}, "icon": "https://maps.gstatic.com/mapfiles/place_api/icons/v1/png_71/restaurant-71.png", "icon_background_color": "#FF9E67", "icon_mask_base_uri": "https://maps.gstatic.com/mapfiles/place_api/icons/v2/restaurant_pinlet", "name": "許記生煎包", "opening_hours": {"open_now": false}, "photos": [{"height": 4032, "html_attributions": ["<a href=\"https://maps.google.com/maps/contrib/106546240017529634528\">SOPHIA</a>"], "photo_reference": "AZose0lHmDt54YOq_sjFl9xjv_Fq6jjzD8DInkkjEmdYLO1p2XMhYvJs5vVGQ-HiusKzujE5V9VgnWxTk_Tdx6xEWkRKHtLDeIrKM-hScSWbHuIB8YwF61fqyOB_7pP9Hjy3qYnuRjf6yzYXcJz08nOfXOomkTC6iTEbwVBkTr4mwRHYFgjW", "width": 3024}], "place_id": "ChIJMd7HkIWpQjQRSTSy995w1ZM", "plus_code": {"compound_code": "2GFH+RH 台灣台北市大安區", "global_code": "7QQ32GFH+RH"}, "price_level": 1, "rating": 3.9, "reference": "ChIJMd7HkIWpQjQRSTSy995w1ZM", "scope": "GOOGLE", "types": ["restaurant", "food", "point_of_interest", "establishment"], "user_ratings_total": 865, "vicinity": "大安區師大路39巷12號"}, {"business_status": "OPERATIONAL", "geometry": {"location": {"lat": 25.0232759, "lng": 121.5292759}, "viewport": {"northeast": {"lat": 25.0246260302915, "lng": 121.5306483302915}, "southwest": {"lat": 25.02192806970849, "lng": 121.5279503697085}}}, "icon": "https://maps.gstatic.com/mapfiles/place_api/icons/v1/png_71/restaurant-71.png", "icon_background_color": "#FF9E67", "icon_mask_base_uri": "https://maps.gstatic.com/mapfiles/place_api/icons/v2/restaurant_pinlet", "name": "伊洛瓦底", "opening_hours": {"open_now": false}, "photos": [{"height": 3024, "html_attributions": ["<a href=\"https://maps.google.com/maps/contrib/118099389723688709484\">Phoebe Cho</a>"], "photo_reference": "AZose0kMWCM2A5y0qaLP_q9a3uW1GGOfmHAJtSAto0E9VPW_bfTs2C0Qm1f59bkWjih6rHqUnfA_tqn_pvoQL60FByXunNHNB4DnqVxE_QYMpd-BDJHC1L_w6itsYZIwxj_TtaOFHpJsW-THfPTn0CWGNPG1-i07Ob5GoSqJ2pHQC30VAudy", "width": 4032}], "place_id": "ChIJxc2Wb4-pQjQRarCVcyHWTWQ", "plus_code": {"compound_code": "2GFH+8P 台灣台北市大安區", "global_code": "7QQ32GFH+8P"}, "price_level": 1, "rating": 3.6, "reference": "ChIJxc2Wb4-pQjQRarCVcyHWTWQ", "scope": "GOOGLE", "types": ["restaurant", "food", "point_of_interest", "establishment"], "user_ratings_total": 738, "vicinity": "大安區龍泉街76號"}, {"business_status": "OPERATIONAL", "geometry": {"location": {"lat": 25.029216, "lng": 121.521823}, "viewport": {"northeast": {"lat": 25.0305545802915, "lng": 121.5232324302915}, "southwest": {"lat": 25.0278566197085, "lng": 121.5205344697085}}}, "icon": "https://maps.gstatic.com/mapfiles/place_api/icons/v1/png_71/restaurant-71.png", "icon_background_color": "#FF9E67", "icon_mask_base_uri": "https://maps.gstatic.com/mapfiles/place_api/icons/v2/restaurant_pinlet", "name": "水牛城美式炭烤牛排（古亭）", "opening_hours": {"open_now": false}, "photos": [{"height": 3024, "html_attributions": ["<a href=\"https://maps.google.com/maps/contrib/104177990533750508763\">水牛城美式炭烤牛排（古亭）</a>"], "photo_reference": "AZose0m32gmhmt1_2bMOvg7wmwy-5ZfhSFRQeTsm-BT7MxH25jwSk79p-CqrT5VqBMJqe1ikcgBiP-pDXVCIzz_6Jx7-7utt-jBLDLfUA04fKihUkf6ImNvkxwUkUrfxQ7GYufiJMDVYtmEBflL_y4nMPn7Ensyvx5HKHxmdsYR9qHN4G_AG", "width": 4032}], "place_id": "ChIJkT9RupupQjQROzXoveyqnmU", "plus_code": {"compound_code": "2GHC+MP 台灣台北市中正區", "global_code": "7QQ32GHC+MP"}, "price_level": 2, "rating": 4.5, "reference": "ChIJkT9RupupQjQROzXoveyqnmU", "scope": "GOOGLE", "types": ["restaurant", "food", "point_of_interest", "establishment"], "user_ratings_total": 3305, "vicinity": "中正區杭州南路二段94號"}, {"business_status": "OPERATIONAL", "geometry": {"location": {"lat": 25.0200278, "lng": 121.5334694}, "viewport": {"northeast": {"lat": 25.0213763802915, "lng": 121.5348183302915}, "southwest": {"lat": 25.0186784197085, "lng": 121.5321203697085}}}, "icon": "https://maps.gstatic.com/mapfiles/place_api/icons/v1/png_71/restaurant-71.png", "icon_background_color": "#FF9E67", "icon_mask_base_uri": "https://maps.gstatic.com/mapfiles/place_api/icons/v2/restaurant_pinlet", "name": "霞飛驛歐法西餐", "opening_hours": {"open_now": false}, "photos": [{"height": 3024, "html_attributions": ["<a href=\"https://maps.google.com/maps/contrib/105475846313273990112\">Jason Wu</a>"], "photo_reference": "AZose0mMEMn0evjf99VsKp56lYLBAK7HSIlWoNbv-c3hNiuHkZJK8akYfKjqyPQtIK1th-g8MDMH3jyXn9Y7s5BxDoLb9vVJpH3egJHCp-ivAnan5MUj2yBH2PElwEvWHk9zG1eqxOoZszPEStaOhwGRAXjCg_lAAUbt5wMZFTuUVIsC0pUs", "width": 4032}], "place_id": "ChIJNfAt5MSrQjQR-Z8NpMSCkjk", "plus_code": {"compound_code": "2GCM+29 台灣台北市大安區", "global_code": "7QQ32GCM+29"}, "price_level": 2, "rating": 4.2, "reference": "ChIJNfAt5MSrQjQR-Z8NpMSCkjk", "scope": "GOOGLE", "types": ["restaurant", "food", "point_of_interest", "establishment"], "user_ratings_total": 1229, "vicinity": "大安區新生南路三段60巷8號"}, {"business_status": "OPERATIONAL", "geometry": {"location": {"lat": 25.0279286, "lng": 121.5326474}, "viewport": {"northeast": {"lat": 25.0293609302915, "lng": 121.5339956302915}, "southwest": {"lat": 25.0266629697085, "lng": 121.5312976697085}}}, "icon": "https://maps.gstatic.com/mapfiles/place_api/icons/v1/png_71/restaurant-71.png", "icon_background_color": "#FF9E67", "icon_mask_base_uri": "https://maps.gstatic.com/mapfiles/place_api/icons/v2/restaurant_pinlet", "name": "青田七六", "opening_hours": {"open_now": false}, "photos": [{"height": 3204, "html_attributions": ["<a href=\"https://maps.google.com/maps/contrib/110037441500647541557\">青田七六</a>"], "photo_reference": "AZose0n6ukaotz9k71gCbiqSlMVQxTIcCENGJgHxGiO2tqUOMqM3HStytynYpZsQnXhyXUJxYNce5zMpQCSiOKeKt96ImZXlHe6C8T-i6lCfz5lLNsj4fPuqiQhhP_6dbI1uBwKzlW6BJSbmHwAqFrVEk04xyDiAcNA7G6QPOLCx-_JNAOhM", "width": 4798}], "place_id": "ChIJU6Wht4apQjQRYlBcxJ1liEk", "plus_code": {"compound_code": "2GHM+53 台灣台北市大安區", "global_code": "7QQ32GHM+53"}, "price_level": 2, "rating": 4.4, "reference": "ChIJU6Wht4apQjQRYlBcxJ1liEk", "scope": "GOOGLE", "types": ["restaurant", "food", "point_of_interest", "establishment"], "user_ratings_total": 3533, "vicinity": "大安區青田街7巷6號"}, {"business_status": "OPERATIONAL", "geometry": {"location": {"lat": 25.0305315, "lng": 121.5285372}, "viewport": {"northeast": {"lat": 25.0319150302915, "lng": 121.5298943302915}, "southwest": {"lat": 25.02921706970849, "lng": 121.5271963697085}}}, "icon": "https://maps.gstatic.com/mapfiles/place_api/icons/v1/png_71/restaurant-71.png", "icon_background_color": "#FF9E67", "icon_mask_base_uri": "https://maps.gstatic.com/mapfiles/place_api/icons/v2/restaurant_pinlet", "name": "六品小館-總店", "opening_hours": {"open_now": false}, "photos": [{"height": 4032, "html_attributions": ["<a href=\"https://maps.google.com/maps/contrib/114588546103351375655\">Chieh Lung Chang</a>"], "photo_reference": "AZose0kl940jxka3wF4Sbl42o4sYaoHBZH1WRYfAJ27umu78Yu0iN4sdltioJAdwjtPE42Xn2J8cF4Yfdwk8QwHgQoviPXIY8NDnrqJis0B4t0ZN9XsLdyUWVhkt_FhAEtGyPutPEc0MzbFcRWvVmTUAZ1aDhkei8p5ISa0knlNp_RyIuwAa", "width": 3024}], "place_id": "ChIJh8vlnYOpQjQRUR6sHTr34x4", "plus_code": {"compound_code": "2GJH+6C 台灣台北市大安區", "global_code": "7QQ32GJH+6C"}, "price_level": 2, "rating": 4.2, "reference": "ChIJh8vlnYOpQjQRUR6sHTr34x4", "scope": "GOOGLE", "types": ["restaurant", "point_of_interest", "food", "establishment"], "user_ratings_total": 1227, "vicinity": "大安區金華街199巷3弄8號"}, {"business_status": "OPERATIONAL", "geometry": {"location": {"lat": 25.024833, "lng": 121.5293959}, "viewport": {"northeast": {"lat": 25.0261818802915, "lng": 121.5307438802915}, "southwest": {"lat": 25.0234839197085, "lng": 121.5280459197085}}}, "icon": "https://maps.gstatic.com/mapfiles/place_api/icons/v1/png_71/restaurant-71.png", "icon_background_color": "#FF9E67", "icon_mask_base_uri": "https://maps.gstatic.com/mapfiles/place_api/icons/v2/restaurant_pinlet", "name": "好好味港式菠蘿包", "opening_hours": {"open_now": false}, "photos": [{"height": 1108, "html_attributions": ["<a href=\"https://maps.google.com/maps/contrib/117974448613056731275\">好好味港式菠蘿包 - 台北 (師大夜市 港式甜品 手工麵包 港式下午茶 專業烘焙 港式茶飲 菠蘿專賣 特調飲品 外送 精緻下午茶)</a>"], "photo_reference": "AZose0mxvTlxnoHmkJOr7Ld4RtVf3FaEktE82EnZbl9bh2dHQVIkLPtck-HCe9P52XadwSWjHJvpydX75i5rLXLSKdXHWwaGf5JT1-fnP8wKRJsn2dsbd5I-A9qQXBfW-2-6_yyOky-78qAkARXdY7LHQmF60PYuqbkDtWptSo1FiMvsjNLV", "width": 1478}], "place_id": "ChIJVVVVVYSpQjQRTBvn41wW-ac", "plus_code": {"compound_code": "2GFH+WQ 台灣台北市大安區", "global_code": "7QQ32GFH+WQ"}, "price_level": 1, "rating": 4, "reference": "ChIJVVVVVYSpQjQRTBvn41wW-ac", "scope": "GOOGLE", "types": ["bakery", "store", "restaurant", "point_of_interest", "food", "establishment"], "user_ratings_total": 913, "vicinity": "大安區龍泉街19-1號"}, {"business_status": "OPERATIONAL", "geometry": {"location": {"lat": 25.030021, "lng": 121.5282401}, "viewport": {"northeast": {"lat": 25.03132538029151, "lng": 121.5295809302915}, "southwest": {"lat": 25.0286274197085, "lng": 121.5268829697085}}}, "icon": "https://maps.gstatic.com/mapfiles/place_api/icons/v1/png_71/restaurant-71.png", "icon_background_color": "#FF9E67", "icon_mask_base_uri": "https://maps.gstatic.com/mapfiles/place_api/icons/v2/restaurant_pinlet", "name": "韓記老虎麵食館", "opening_hours": {"open_now": false}, "photos": [{"height": 2988, "html_attributions": ["<a href=\"https://maps.google.com/maps/contrib/111120787384452051454\">俊平</a>"], "photo_reference": "AZose0nBgDnuRA9wQkmcmLR_0ycnnifNu9wN5rzmBC1Wfeav2KzUULagwO3VHMnr78insoDb44paTVasmVA_FH4uzTYl4v_KVPU9Z3nzrmiDhpf9CskSI1g9p77sVxXoQG-4ZyD9Ra_GsuE-YRSg03qyk87NGcUt07dnRXX0dn-VN-ZDo0c7", "width": 5312}], "place_id": "ChIJc0AYeYOpQjQRwIGK8ua6w7M", "plus_code": {"compound_code": "2GJH+27 台灣台北市大安區", "global_code": "7QQ32GJH+27"}, "price_level": 2, "rating": 4.1, "reference": "ChIJc0AYeYOpQjQRwIGK8ua6w7M", "scope": "GOOGLE", "types": ["restaurant", "point_of_interest", "food", "establishment"], "user_ratings_total": 2377, "vicinity": "大安區金華街203號"}, {"business_status": "OPERATIONAL", "geometry": {"location": {"lat": 25.0239177, "lng": 121.5243818}, "viewport": {"northeast": {"lat": 25.0253238302915, "lng": 121.5257704302915}, "southwest": {"lat": 25.0226258697085, "lng": 121.5230724697085}}}, "icon": "https://maps.gstatic.com/mapfiles/place_api/icons/v1/png_71/restaurant-71.png", "icon_background_color": "#FF9E67", "icon_mask_base_uri": "https://maps.gstatic.com/mapfiles/place_api/icons/v2/restaurant_pinlet", "name": "聚日式鍋物 台北南昌店", "opening_hours": {"open_now": false}, "photos": [{"height": 2992, "html_attributions": ["<a href=\"https://maps.google.com/maps/contrib/109310092766508185252\">WENNON LEE</a>"], "photo_reference": "AZose0kTJlpwtwvbhIfV7VDbrx1tB_2CFvRYGJSYtf_xK3_ydoHDlVxhA1e2Lfn3BL835LEZNKl-dw3V-QbZe5kL8K3EdJLehEqLLR1zvmlnA9I9CmYsqnk_IbskSy_7PLftvZUoK_pohMf-7RoTKA_UMsN56i4nvg2IQxWGtFqSgj730ihX", "width": 4000}], "place_id": "ChIJn1fdFZCpQjQRnvgTI_LTCkw", "plus_code": {"compound_code": "2GFF+HQ 台灣台北市中正區", "global_code": "7QQ32GFF+HQ"}, "price_level": 2, "rating": 4.7, "reference": "ChIJn1fdFZCpQjQRnvgTI_LTCkw", "scope": "GOOGLE", "types": ["restaurant", "point_of_interest", "food", "establishment"], "user_ratings_total": 4962, "vicinity": "2F, No. 216, 南昌路二段, 中正区"}, {"business_status": "OPERATIONAL", "geometry": {"location": {"lat": 25.0245357, "lng": 121.5290215}, "viewport": {"northeast": {"lat": 25.0259384302915, "lng": 121.5303963302915}, "southwest": {"lat": 25.0232404697085, "lng": 121.5276983697085}}}, "icon": "https://maps.gstatic.com/mapfiles/place_api/icons/v1/png_71/restaurant-71.png", "icon_background_color": "#FF9E67", "icon_mask_base_uri": "https://maps.gstatic.com/mapfiles/place_api/icons/v2/restaurant_pinlet", "name": "師園鹽酥雞", "opening_hours": {"open_now": false}, "photos": [{"height": 4032, "html_attributions": ["<a href=\"https://maps.google.com/maps/contrib/108833765066837199688\">jackie chen</a>"], "photo_reference": "AZose0nkCW8xCRuXHg3mBPHX4loIvl-gslgy3OKllZTy97sweewgSOJBFFiQuPF61E_laZymxV8-MFO-3UFda3AF4DpmRDyZAlgwG2QUhjaE6iA5y4XiMaVPi73iTNGcu-3DRpVG5tWdWVySUKFMSYJNzYbC2H_IW2qlb87AMkP9FhG_pP0k", "width": 3024}], "place_id": "ChIJN5sMgIWpQjQRBVYjMgpDIYg", "plus_code": {"compound_code": "2GFH+RJ 台灣台北市大安區", "global_code": "7QQ32GFH+RJ"}, "price_level": 1, "rating": 4.2, "reference": "ChIJN5sMgIWpQjQRBVYjMgpDIYg", "scope": "GOOGLE", "types": ["meal_takeaway", "store", "restaurant", "point_of_interest", "food", "establishment"], "user_ratings_total": 2764, "vicinity": "大安區師大路39巷14號"}, {"business_status": "OPERATIONAL", "geometry": {"location": {"lat": 25.0201304, "lng": 121.5335261}, "viewport": {"northeast": {"lat": 25.02160943029149, "lng": 121.5350941302915}, "southwest": {"lat": 25.01891146970849, "lng": 121.5323961697085}}}, "icon": "https://maps.gstatic.com/mapfiles/place_api/icons/v1/png_71/restaurant-71.png", "icon_background_color": "#FF9E67", "icon_mask_base_uri": "https://maps.gstatic.com/mapfiles/place_api/icons/v2/restaurant_pinlet", "name": "蘇活義大利麵坊", "opening_hours": {"open_now": false}, "photos": [{"height": 3024, "html_attributions": ["<a href=\"https://maps.google.com/maps/contrib/100089910441564402059\">Bruce Liu</a>"], "photo_reference": "AZose0mnnCx9t30IPEu48k5SyuR1nxDP2UizG9SChnHgO3pN4ZYN0ogf0c3k7NRd4Y5XA9MjKSpVnD8pfeH8veryOcDVmlaQBArUNrI7ojPLiwjWDKxvWph96H55GP8g6EGQ9yHv8dZG4cYuA36uzwGsM6vO9-JHJmrW5s7_MWuElr_w8pUN", "width": 4032}], "place_id": "ChIJtde7A4mpQjQR3cag3SFcF7c", "plus_code": {"compound_code": "2GCM+3C 台灣台北市大安區", "global_code": "7QQ32GCM+3C"}, "price_level": 2, "rating": 4.2, "reference": "ChIJtde7A4mpQjQR3cag3SFcF7c", "scope": "GOOGLE", "types": ["restaurant", "point_of_interest", "food", "establishment"], "user_ratings_total": 787, "vicinity": "大安區新生南路三段60巷3號"}, {"business_status": "OPERATIONAL", "geometry": {"location": {"lat": 25.0205722, "lng": 121.5336417}, "viewport": {"northeast": {"lat": 25.02184518029151, "lng": 121.5349856802915}, "southwest": {"lat": 25.0191472197085, "lng": 121.5322877197085}}}, "icon": "https://maps.gstatic.com/mapfiles/place_api/icons/v1/png_71/generic_business-71.png", "icon_background_color": "#13B5C7", "icon_mask_base_uri": "https://maps.gstatic.com/mapfiles/place_api/icons/v2/generic_pinlet", "name": "女巫店", "opening_hours": {"open_now": false}, "photos": [{"height": 3024, "html_attributions": ["<a href=\"https://maps.google.com/maps/contrib/114348011451067434506\">Debbie Hsiao</a>"], "photo_reference": "AZose0mUI0p74HnvhUvSPuzvn2jwL9uqMb2a9N6FARkyYP-ia5kAGxFdi7XCz22oDg7syRaGo8S-EIJFLZL1qzstD8u6h2_tv7pZimfStMPswxvmWppEcPq9NImaSsKTjBmomJgo93d7OSdh7s0-iXP56yk083pltl-SYSDq9NCbvbnr2Lrx", "width": 4032}], "place_id": "ChIJXWgb_4ipQjQR5zaBg-r3ryU", "plus_code": {"compound_code": "2GCM+6F 台灣台北市大安區", "global_code": "7QQ32GCM+6F"}, "price_level": 2, "rating": 4.6, "reference": "ChIJXWgb_4ipQjQR5zaBg-r3ryU", "scope": "GOOGLE", "types": ["cafe", "store", "restaurant", "point_of_interest", "food", "establishment"], "user_ratings_total": 1426, "vicinity": "大安區新生南路三段56巷7號"}, {"business_status": "OPERATIONAL", "geometry": {"location": {"lat": 25.0307503, "lng": 121.529454}, "viewport": {"northeast": {"lat": 25.0321007802915, "lng": 121.5308409802915}, "southwest": {"lat": 25.0294028197085, "lng": 121.5281430197085}}}, "icon": "https://maps.gstatic.com/mapfiles/place_api/icons/v1/png_71/restaurant-71.png", "icon_background_color": "#FF9E67", "icon_mask_base_uri": "https://maps.gstatic.com/mapfiles/place_api/icons/v2/restaurant_pinlet", "name": "好公道金雞園", "opening_hours": {"open_now": false}, "photos": [{"height": 2992, "html_attributions": ["<a href=\"https://maps.google.com/maps/contrib/109310092766508185252\">WENNON LEE</a>"], "photo_reference": "AZose0nKBFnwDVuytWjrJcX4LJcKaA_KN_-oiDUvqUyDdJnPn8G5k0U-uRPIAm5D6nHHkSBbHGT2hV6kbKEnmBQHyGqSf-PlRKYqC6QdbWgd06a35Etr3Ds53yWTulQ9TudoQBvCw9cCwDhcJOKIz0rOlA6ksoYz2k-ywXqgNN1oS2jYAtzI", "width": 4000}], "place_id": "ChIJ2c7OvYOpQjQR0gsYO_lmsKw", "plus_code": {"compound_code": "2GJH+8Q 台灣台北市大安區", "global_code": "7QQ32GJH+8Q"}, "price_level": 1, "rating": 4, "reference": "ChIJ2c7OvYOpQjQR0gsYO_lmsKw", "scope": "GOOGLE", "types": ["bakery", "store", "restaurant", "point_of_interest", "food", "establishment"], "user_ratings_total": 2840, "vicinity": "大安區永康街28-1號"}, {"business_status": "OPERATIONAL", "geometry": {"location": {"lat": 25.0236368, "lng": 121.526933}, "viewport": {"northeast": {"lat": 25.0250486302915, "lng": 121.5282890302915}, "southwest": {"lat": 25.02235066970849, "lng": 121.5255910697085}}}, "icon": "https://maps.gstatic.com/mapfiles/place_api/icons/v1/png_71/restaurant-71.png", "icon_background_color": "#FF9E67", "icon_mask_base_uri": "https://maps.gstatic.com/mapfiles/place_api/icons/v2/restaurant_pinlet", "name": "雲禾特調小火鍋", "opening_hours": {"open_now": false}, "photos": [{"height": 2992, "html_attributions": ["<a href=\"https://maps.google.com/maps/contrib/109310092766508185252\">WENNON LEE</a>"], "photo_reference": "AZose0kJg4-mRj2I5O1hWxmDEDhXVv9wB6_V5NmSLsvipS_B4GRSd6DgXiiNKhn9wM5prZhIbFmqd_drYJFwFS2yUxoFyI42JMAWfMQQiTJhG8-U76vH4MkPbbMgltWuFNqjAPXLR84MRqZ790_xG4H9h3i-30Sf3oMOqt5AvdnfszFRiK0g", "width": 4000}], "place_id": "ChIJ96_lko-pQjQR2cHcKoqcW6I", "plus_code": {"compound_code": "2GFG+FQ 台灣台北市大安區", "global_code": "7QQ32GFG+FQ"}, "price_level": 2, "rating": 4.1, "reference": "ChIJ96_lko-pQjQR2cHcKoqcW6I", "scope": "GOOGLE", "types": ["restaurant", "point_of_interest", "food", "establishment"], "user_ratings_total": 893, "vicinity": "大安區雲和街2號"}, {"business_status": "OPERATIONAL", "geometry": {"location": {"lat": 25.0261707, "lng": 121.5234396}, "viewport": {"northeast": {"lat": 25.0274754302915, "lng": 121.5247114802915}, "southwest": {"lat": 25.0247774697085, "lng": 121.5220135197085}}}, "icon": "https://maps.gstatic.com/mapfiles/place_api/icons/v1/png_71/restaurant-71.png", "icon_background_color": "#FF9E67", "icon_mask_base_uri": "https://maps.gstatic.com/mapfiles/place_api/icons/v2/restaurant_pinlet", "name": "西堤牛排 台北羅斯福店", "opening_hours": {"open_now": false}, "photos": [{"height": 3024, "html_attributions": ["<a href=\"https://maps.google.com/maps/contrib/111423937157255655214\">TASTY西堤牛排 台北羅斯福店</a>"], "photo_reference": "AZose0kQrKbBTGtGdT_2OwW9Usb0ZGOfIF80WkUG-4ySnJHKYXX9wlZA_yQrSrfganEsucEIYO_JFtl5B5CeN2SvKIHCQ3lgQm2PLi9FUNNF4dgJzU0NtNWmc2Ax6rmIvymWt3q1IUMhNnlfXPxt5QnK-wX66kkrTJmxAzPHG-BKxIkwVRAc", "width": 4032}], "place_id": "ChIJwdwRD9qrQjQR8v-5KSTMrpQ", "plus_code": {"compound_code": "2GGF+F9 台灣台北市大安區", "global_code": "7QQ32GGF+F9"}, "price_level": 2, "rating": 4.6, "reference": "ChIJwdwRD9qrQjQR8v-5KSTMrpQ", "scope": "GOOGLE", "types": ["restaurant", "point_of_interest", "food", "establishment"], "user_ratings_total": 5998, "vicinity": "2F, No. 79號, 罗斯福路二段, 大安区"}, {"business_status": "OPERATIONAL", "geometry": {"location": {"lat": 25.0243393, "lng": 121.5278786}, "viewport": {"northeast": {"lat": 25.0257344802915, "lng": 121.5292694802915}, "southwest": {"lat": 25.0230365197085, "lng": 121.5265715197085}}}, "icon": "https://maps.gstatic.com/mapfiles/place_api/icons/v1/png_71/restaurant-71.png", "icon_background_color": "#FF9E67", "icon_mask_base_uri": "https://maps.gstatic.com/mapfiles/place_api/icons/v2/restaurant_pinlet", "name": "印渡風情印度餐廳師大店", "opening_hours": {"open_now": false}, "photos": [{"height": 4032, "html_attributions": ["<a href=\"https://maps.google.com/maps/contrib/101878053437409907929\">S T</a>"], "photo_reference": "AZose0lBx2XmmlSq7YHFMfbzAOjeLguMwzjiSApCNBzzRqYWqv0iBG2dmWThORpyi3bVPedeoX4IxSgUdV6HePTt995iUZT8cM5mTYEUhM8pzNDPMY_hM-eQfo0ir9RfPyd83Y89VrqmY2XQtnZANdp_UtjYZJTJRk-JxvJzrS-SeTTfDUI", "width": 3024}], "place_id": "ChIJmxpmfIWpQjQRuO6qJKcBk74", "plus_code": {"compound_code": "2GFH+P5 台灣台北市大安區", "global_code": "7QQ32GFH+P5"}, "price_level": 2, "rating": 4.6, "reference": "ChIJmxpmfIWpQjQRuO6qJKcBk74", "scope": "GOOGLE", "types": ["restaurant", "point_of_interest", "food", "establishment"], "user_ratings_total": 4172, "vicinity": "大安區浦城街13巷26號"}, {"business_status": "OPERATIONAL", "geometry": {"location": {"lat": 25.02636309999999, "lng": 121.5211358}, "viewport": {"northeast": {"lat": 25.0277044302915, "lng": 121.5224637802915}, "southwest": {"lat": 25.0250064697085, "lng": 121.5197658197085}}}, "icon": "https://maps.gstatic.com/mapfiles/place_api/icons/v1/png_71/restaurant-71.png", "icon_background_color": "#FF9E67", "icon_mask_base_uri": "https://maps.gstatic.com/mapfiles/place_api/icons/v2/restaurant_pinlet", "name": "晉江茶堂", "opening_hours": {"open_now": false}, "photos": [{"height": 4032, "html_attributions": ["<a href=\"https://maps.google.com/maps/contrib/107970210275221737528\">Ymow Wu</a>"], "photo_reference": "AZose0mUd00d-EzFzsWgp2m7Eeg_GTUnzO_n7O5e1mRDIt1vjctAZh914-oW4T5qqnPP_EEtV90ux1Y4gbUx5hg0VZsdbfhA3mxNJyW8ih0fwHzqwkrvnAPlPnbW6RxcNvZ3SiWvi92ky9bDYrKPa09McYpy0-0J8Ku6c0UHHtfrqTaleEVl", "width": 3024}], "place_id": "ChIJcTzuDJqpQjQRNXZGU1vYgnA", "plus_code": {"compound_code": "2GGC+GF 台灣台北市中正區", "global_code": "7QQ32GGC+GF"}, "price_level": 2, "rating": 4.3, "reference": "ChIJcTzuDJqpQjQRNXZGU1vYgnA", "scope": "GOOGLE", "types": ["restaurant", "point_of_interest", "food", "establishment"], "user_ratings_total": 1433, "vicinity": "中正區晉江街1號"}, {"business_status": "OPERATIONAL", "geometry": {"location": {"lat": 25.02786369999999, "lng": 121.5248983}, "viewport": {"northeast": {"lat": 25.0293303802915, "lng": 121.5263756302915}, "southwest": {"lat": 25.02663241970849, "lng": 121.5236776697085}}}, "icon": "https://maps.gstatic.com/mapfiles/place_api/icons/v1/png_71/restaurant-71.png", "icon_background_color": "#FF9E67", "icon_mask_base_uri": "https://maps.gstatic.com/mapfiles/place_api/icons/v2/restaurant_pinlet", "name": "台電勵進餐廳", "opening_hours": {"open_now": false}, "photos": [{"height": 553, "html_attributions": ["<a href=\"https://maps.google.com/maps/contrib/107622108845007023991\">佳修</a>"], "photo_reference": "AZose0ldkGcoLrGRrLeKlZGRAMNUNz4alYh78aOivypxn7-XbJ8dmBouuHb5B-UFeX01WEt4MkbMGqrpVODkcabsd-R9ONnE7jGDGLKw9co9ZPqfRS-xvvKofeUHedqE6gXwz33GMuqaWubImN-oWS6KK3AeeYFtCvfsUMOz4vVBsAOouFfA", "width": 828}], "place_id": "ChIJZ9j9LpupQjQRo_v2j2RcSlQ", "plus_code": {"compound_code": "2GHF+4X 台灣台北市大安區", "global_code": "7QQ32GHF+4X"}, "price_level": 2, "rating": 4, "reference": "ChIJZ9j9LpupQjQRo_v2j2RcSlQ", "scope": "GOOGLE", "types": ["restaurant", "point_of_interest", "food", "establishment"], "user_ratings_total": 3136, "vicinity": "大安區和平東路一段75巷"}, {"business_status": "OPERATIONAL", "geometry": {"location": {"lat": 25.0273667, "lng": 121.5217564}, "viewport": {"northeast": {"lat": 25.0287479802915, "lng": 121.5231013802915}, "southwest": {"lat": 25.0260500197085, "lng": 121.5204034197085}}}, "icon": "https://maps.gstatic.com/mapfiles/place_api/icons/v1/png_71/restaurant-71.png", "icon_background_color": "#FF9E67", "icon_mask_base_uri": "https://maps.gstatic.com/mapfiles/place_api/icons/v2/restaurant_pinlet", "name": "帝拉摩義式餐廳 telamo italian bistro", "opening_hours": {"open_now": false}, "photos": [{"height": 2346, "html_attributions": ["<a href=\"https://maps.google.com/maps/contrib/106012861395724067547\">J ane</a>"], "photo_reference": "AZose0khFTC1vfGOoHikpjmeWmm5b1fRwz4lM-HVeoJp-RUtKyZqZO9n53-sSnD1tENmuYovC4i9jL6rzyaNPmLFLk6A1jbbSU5Ptb9SkQYj_Hw-obsDH-U6rOzlQHLXdQSG3cvZ6P0VsyJ8wN5TqeLYpSzwOEnFcw6rB2ZiS3SCVUQR3iyN", "width": 2160}], "place_id": "ChIJWzVrzpupQjQRofikAqvFsrc", "plus_code": {"compound_code": "2GGC+WP 台灣台北市中正區", "global_code": "7QQ32GGC+WP"}, "price_level": 2, "rating": 4.1, "reference": "ChIJWzVrzpupQjQRofikAqvFsrc", "scope": "GOOGLE", "types": ["restaurant", "point_of_interest", "food", "establishment"], "user_ratings_total": 1009, "vicinity": "中正區羅斯福路二段66巷1號"}, {"business_status": "OPERATIONAL", "geometry": {"location": {"lat": 25.0197686, "lng": 121.5299177}, "viewport": {"northeast": {"lat": 25.02117083029151, "lng": 121.5312114302915}, "southwest": {"lat": 25.0184728697085, "lng": 121.5285134697085}}}, "icon": "https://maps.gstatic.com/mapfiles/place_api/icons/v1/png_71/restaurant-71.png", "icon_background_color": "#FF9E67", "icon_mask_base_uri": "https://maps.gstatic.com/mapfiles/place_api/icons/v2/restaurant_pinlet", "name": "歐嬤德式美食 哥德店", "opening_hours": {"open_now": false}, "photos": [{"height": 1108, "html_attributions": ["<a href=\"https://maps.google.com/maps/contrib/106966940561474253333\">歐嬤德式美食 哥德店</a>"], "photo_reference": "AZose0k60Ccw3okJt_sVqqRqATFpkLxlns5V0u7nkmupaCmgfMz8Vlm_c1PH5RVbPezhLD-ZjuW4ee8HZg8UWa3_tanny94Kqw8fok7T3oRr87vW-N0iobIedI0VNz_6sxW3WOvrGzqAw88iHuwT7Th6e0r276p5pmnyrfFzrPPGeTBNbZq_", "width": 1478}], "place_id": "ChIJYbE3TImpQjQRwm5Ok39Ck9M", "plus_code": {"compound_code": "2G9H+WX 台灣台北市大安區", "global_code": "7QQ32G9H+WX"}, "price_level": 2, "rating": 4.4, "reference": "ChIJYbE3TImpQjQRwm5Ok39Ck9M", "scope": "GOOGLE", "types": ["bakery", "store", "restaurant", "point_of_interest", "food", "establishment"], "user_ratings_total": 1660, "vicinity": "大安區辛亥路一段30號"}, {"business_status": "OPERATIONAL", "geometry": {"location": {"lat": 25.0258287, "lng": 121.5220037}, "viewport": {"northeast": {"lat": 25.0272681802915, "lng": 121.5234044802915}, "southwest": {"lat": 25.0245702197085, "lng": 121.5207065197085}}}, "icon": "https://maps.gstatic.com/mapfiles/place_api/icons/v1/png_71/restaurant-71.png", "icon_background_color": "#FF9E67", "icon_mask_base_uri": "https://maps.gstatic.com/mapfiles/place_api/icons/v2/restaurant_pinlet", "name": "夏慕尼新香榭鐵板燒 台北南昌店", "opening_hours": {"open_now": false}, "photos": [{"height": 2268, "html_attributions": ["<a href=\"https://maps.google.com/maps/contrib/107493523800056068658\">Vic Huang</a>"], "photo_reference": "AZose0m1bei5tslC3VVZEsaVbInNQbEKdGC1JTRbHIRE-8MREh4M4QZ0il6s6b1PIe_xFv25H_MkOnHKffMC95FmBs00UDFWblBNXMy2DgH1gxZw4NRxm38I9vmDMtmDKNSkO0_9kYezo0wlQtXguVXZVhC5sqpS5fVs9tavQ3CoIZ6Ni68g", "width": 4032}], "place_id": "ChIJWYpBeJqpQjQR4AloQ8_IBxg", "plus_code": {"compound_code": "2GGC+8R 台灣台北市中正區", "global_code": "7QQ32GGC+8R"}, "price_level": 3, "rating": 4.4, "reference": "ChIJWYpBeJqpQjQR4AloQ8_IBxg", "scope": "GOOGLE", "types": ["restaurant", "point_of_interest", "food", "establishment"], "user_ratings_total": 3336, "vicinity": "2樓, No. 112, 南昌路二段, 中正区"}, {"business_status": "OPERATIONAL", "geometry": {"location": {"lat": 25.0329382, "lng": 121.5281111}, "viewport": {"northeast": {"lat": 25.0342362302915, "lng": 121.5294483302915}, "southwest": {"lat": 25.0315382697085, "lng": 121.5267503697085}}}, "icon": "https://maps.gstatic.com/mapfiles/place_api/icons/v1/png_71/restaurant-71.png", "icon_background_color": "#FF9E67", "icon_mask_base_uri": "https://maps.gstatic.com/mapfiles/place_api/icons/v2/restaurant_pinlet", "name": "永康牛肉麵", "opening_hours": {"open_now": false}, "photos": [{"height": 3024, "html_attributions": ["<a href=\"https://maps.google.com/maps/contrib/117416902533110050886\">老輝俠</a>"], "photo_reference": "AZose0nG_F0EfjdSiEPciuDo3oIDfZfp-hv6xKIcZo4W6-VGETl0hlwdIDLsIVoIc0iqmiulzpUj86l_JZNd14oEKPpJOhEUXoqWunH26QRm13e_yvSpJG76Z8Vlt44k-riyn2A59w7egxmeSM83DsWIMY3LikmwMomR2_-bHvto5Li_pUY", "width": 4032}], "place_id": "ChIJgRdW94KpQjQRODiapkz_DB0", "plus_code": {"compound_code": "2GMH+56 台灣台北市大安區", "global_code": "7QQ32GMH+56"}, "rating": 3.8, "reference": "ChIJgRdW94KpQjQRODiapkz_DB0", "scope": "GOOGLE", "types": ["restaurant", "point_of_interest", "food", "establishment"], "user_ratings_total": 8753, "vicinity": "大安區金山南路二段31巷17號"}, {"business_status": "OPERATIONAL", "geometry": {"location": {"lat": 25.0315092, "lng": 121.5287315}, "viewport": {"northeast": {"lat": 25.03280488029151, "lng": 121.5300690302915}, "southwest": {"lat": 25.0301069197085, "lng": 121.5273710697085}}}, "icon": "https://maps.gstatic.com/mapfiles/place_api/icons/v1/png_71/restaurant-71.png", "icon_background_color": "#FF9E67", "icon_mask_base_uri": "https://maps.gstatic.com/mapfiles/place_api/icons/v2/restaurant_pinlet", "name": "川味老張牛肉麵店", "opening_hours": {"open_now": false}, "photos": [{"height": 1440, "html_attributions": ["<a href=\"https://maps.google.com/maps/contrib/100300190769157864593\">川味老張牛肉麵店</a>"], "photo_reference": "AZose0kJIJWdNyGST4mUfaE-NsS8E3WwMYgGDS8AkJ_gFNltTSt0MLfbAfcyWvci6WXP06ci06NW6oEXRBsd2mcrjxqn5jsi79LWZ4mKXewxIYdoBsu9_nTTQpuqKgVN9BUSTYQBJJDR-JxWlEu5D76cf4MMmJQ-THTD1GY4-lHkopSwUSh8", "width": 1080}], "place_id": "ChIJH8CWqIOpQjQRtYRsiGYjETo", "plus_code": {"compound_code": "2GJH+JF 台灣台北市大安區", "global_code": "7QQ32GJH+JF"}, "price_level": 2, "rating": 3.9, "reference": "ChIJH8CWqIOpQjQRtYRsiGYjETo", "scope": "GOOGLE", "types": ["restaurant", "point_of_interest", "food", "establishment"], "user_ratings_total": 2080, "vicinity": "大安區愛國東路105號"}, {"business_status": "OPERATIONAL", "geometry": {"location": {"lat": 25.0238027, "lng": 121.5337906}, "viewport": {"northeast": {"lat": 25.0251180302915, "lng": 121.5355109802915}, "southwest": {"lat": 25.0224200697085, "lng": 121.5328130197085}}}, "icon": "https://maps.gstatic.com/mapfiles/place_api/icons/v1/png_71/restaurant-71.png", "icon_background_color": "#FF9E67", "icon_mask_base_uri": "https://maps.gstatic.com/mapfiles/place_api/icons/v2/restaurant_pinlet", "name": "恬園餐廳 - 福華國際文教會館", "opening_hours": {"open_now": false}, "photos": [{"height": 3024, "html_attributions": ["<a href=\"https://maps.google.com/maps/contrib/116689782956899881155\">神秘客</a>"], "photo_reference": "AZose0lLm8PNGpf1gANfssQp_PE0cc0aVUErL2QPMiHd18isfBgXxdv0fqmsqcT40UPYhAS9WoNytWdmTIJ3OS0ZMmqtbTEHaRH1KdFw6oP7rYn5BRxtFmUmAclcTlz1EYLlz5aK07D3S3IcNNTNgB6woLPZ3j7-WlHWlqaRtfGPtk6B-vgS", "width": 4032}], "place_id": "ChIJpZwvzYepQjQRADDNj6t3dlE", "plus_code": {"compound_code": "2GFM+GG 台灣台北市大安區", "global_code": "7QQ32GFM+GG"}, "price_level": 2, "rating": 3.9, "reference": "ChIJpZwvzYepQjQRADDNj6t3dlE", "scope": "GOOGLE", "types": ["restaurant", "point_of_interest", "food", "establishment"], "user_ratings_total": 667, "vicinity": "大安區新生南路三段30號"}, {"business_status": "OPERATIONAL", "geometry": {"location": {"lat": 25.0298698, "lng": 121.5291623}, "viewport": {"northeast": {"lat": 25.0311811302915, "lng": 121.5305047802915}, "southwest": {"lat": 25.0284831697085, "lng": 121.5278068197085}}}, "icon": "https://maps.gstatic.com/mapfiles/place_api/icons/v1/png_71/restaurant-71.png", "icon_background_color": "#FF9E67", "icon_mask_base_uri": "https://maps.gstatic.com/mapfiles/place_api/icons/v2/restaurant_pinlet", "name": "歐嬤德式美食 金華店", "opening_hours": {"open_now": false}, "photos": [{"height": 1706, "html_attributions": ["<a href=\"https://maps.google.com/maps/contrib/108515553636933181618\">歐嬤德式美食 金華店</a>"], "photo_reference": "AZose0k5kD9sccdfamofXngAF7H_WpK5QFKJiurCOtFLSQb_Y3gq4mlkOcZS-Xtn7yyn04x4VdmmJtwmR9LkQVt39_h4Y9PWl-VRPdwKavY1Pkw6zajyQ5xK_EIZFLIMrMpnjyCGpHQCvum4leBf1tAKYR6dTXex4YjVRpCdUz29XWaHDffc", "width": 960}], "place_id": "ChIJ8fkIRYKpQjQR558305t-wZQ", "plus_code": {"compound_code": "2GHH+WM 台灣台北市大安區", "global_code": "7QQ32GHH+WM"}, "price_level": 3, "rating": 4.3, "reference": "ChIJ8fkIRYKpQjQR558305t-wZQ", "scope": "GOOGLE", "types": ["bakery", "store", "restaurant", "point_of_interest", "food", "establishment"], "user_ratings_total": 1682, "vicinity": "大安區金華街221號"}, {"business_status": "OPERATIONAL", "geometry": {"location": {"lat": 25.0324667, "lng": 121.5291407}, "viewport": {"northeast": {"lat": 25.0338156802915, "lng": 121.5304896802915}, "southwest": {"lat": 25.0311177197085, "lng": 121.5277917197085}}}, "icon": "https://maps.gstatic.com/mapfiles/place_api/icons/v1/png_71/restaurant-71.png", "icon_background_color": "#FF9E67", "icon_mask_base_uri": "https://maps.gstatic.com/mapfiles/place_api/icons/v2/restaurant_pinlet", "name": "豐盛食堂", "opening_hours": {"open_now": false}, "photos": [{"height": 3000, "html_attributions": ["<a href=\"https://maps.google.com/maps/contrib/102858033790446409074\">Brook Li</a>"], "photo_reference": "AZose0lL1ETICTVXgzrBax1aKPqc8nGnAwqtNk05ZKiFtmQ13oIoSDNEFHdpelSBT5eJguvSp26VnhJPItnmCvM4cIRR3FUdq5vBh-B9bkxrGOmHQB0cimSYBE5Os_Yc4bH0N6MTWm5aImpC4F7IhBv-abBqni3VLBSKPbvf-oiPLORnEsjN", "width": 4000}], "place_id": "ChIJ97_CUYKpQjQRoiw8x6BqopA", "plus_code": {"compound_code": "2GJH+XM 台灣台北市大安區", "global_code": "7QQ32GJH+XM"}, "price_level": 2, "rating": 4.3, "reference": "ChIJ97_CUYKpQjQRoiw8x6BqopA", "scope": "GOOGLE", "types": ["restaurant", "food", "point_of_interest", "establishment"], "user_ratings_total": 1856, "vicinity": "大安區麗水街1之3號"}, {"business_status": "OPERATIONAL", "geometry": {"location": {"lat": 25.0338904, "lng": 121.5238684}, "viewport": {"northeast": {"lat": 25.0351682802915, "lng": 121.5251672302915}, "southwest": {"lat": 25.0324703197085, "lng": 121.5224692697085}}}, "icon": "https://maps.gstatic.com/mapfiles/place_api/icons/v1/png_71/restaurant-71.png", "icon_background_color": "#FF9E67", "icon_mask_base_uri": "https://maps.gstatic.com/mapfiles/place_api/icons/v2/restaurant_pinlet", "name": "盛園絲瓜小籠湯包", "opening_hours": {"open_now": false}, "photos": [{"height": 3024, "html_attributions": ["<a href=\"https://maps.google.com/maps/contrib/101385917565653237918\">陳以儒</a>"], "photo_reference": "AZose0k_HH7w5J1n1xwmTNfMMDCzRfhaNTkGE-4Tpz0YKNtP5k0j4d9GymEvitqbL65kr34AcAIR5hYBIw3dpMKY3fPz_R6wBYYAD-oblslEC0BrwsxdCTszJmjxJPUkIA54nh593Z_GlxLOXqouQdrP2WmML4SpbkxTJ5a1G176uo9swrcL", "width": 4032}], "place_id": "ChIJizrvGZ2pQjQRbR1iuhPz8Nw", "plus_code": {"compound_code": "2GMF+HG 台灣台北市大安區", "global_code": "7QQ32GMF+HG"}, "price_level": 2, "rating": 3.8, "reference": "ChIJizrvGZ2pQjQRbR1iuhPz8Nw", "scope": "GOOGLE", "types": ["restaurant", "food", "point_of_interest", "establishment"], "user_ratings_total": 4141, "vicinity": "大安區杭州南路二段25巷1號"}, {"business_status": "OPERATIONAL", "geometry": {"location": {"lat": 25.0335035, "lng": 121.530118}, "viewport": {"northeast": {"lat": 25.0349093802915, "lng": 121.5314755802915}, "southwest": {"lat": 25.0322114197085, "lng": 121.5287776197085}}}, "icon": "https://maps.gstatic.com/mapfiles/place_api/icons/v1/png_71/restaurant-71.png", "icon_background_color": "#FF9E67", "icon_mask_base_uri": "https://maps.gstatic.com/mapfiles/place_api/icons/v2/restaurant_pinlet", "name": "鼎泰豐 信義店", "opening_hours": {"open_now": false}, "photos": [{"height": 4032, "html_attributions": ["<a href=\"https://maps.google.com/maps/contrib/115212346095495076177\">wataru T</a>"], "photo_reference": "AZose0mhifFZACpFp9AaZxx3IQqyQCdQ5laqN0VQZuN7SiRqrr-U1jVbhj2C0S8ygBvRHMWMh-MvrfTWImKRwbKS2BZDCEHBL9kXe5nr_jqapYHciRRiVemNVyh5bueztrk2bW6oWRK2ejGyEGdOpmla-5wrryNHii18iNAX66m8MIGQZb0F", "width": 3024}], "place_id": "ChIJbTKSE4KpQjQRXDZZI57v-pM", "plus_code": {"compound_code": "2GMJ+C2 台灣台北市大安區", "global_code": "7QQ32GMJ+C2"}, "price_level": 2, "rating": 4.4, "reference": "ChIJbTKSE4KpQjQRXDZZI57v-pM", "scope": "GOOGLE", "types": ["restaurant", "food", "point_of_interest", "establishment"], "user_ratings_total": 11958, "vicinity": "大安區信義路二段194號"}, {"business_status": "OPERATIONAL", "geometry": {"location": {"lat": 25.022469, "lng": 121.528811}, "viewport": {"northeast": {"lat": 25.0238270802915, "lng": 121.5301607802915}, "southwest": {"lat": 25.0211291197085, "lng": 121.5274628197085}}}, "icon": "https://maps.gstatic.com/mapfiles/place_api/icons/v1/png_71/restaurant-71.png", "icon_background_color": "#FF9E67", "icon_mask_base_uri": "https://maps.gstatic.com/mapfiles/place_api/icons/v2/restaurant_pinlet", "name": "佬披薩LAPIZZAitalian", "opening_hours": {"open_now": false}, "photos": [{"height": 3024, "html_attributions": ["<a href=\"https://maps.google.com/maps/contrib/101678315725963708482\">Wong Ron</a>"], "photo_reference": "AZose0nP0aXoGNwh9QjSHXs-Ux2CAD7as17-AAPyRXzPsBOyZCDXLtkAuJD5LrD3i6KELkObr7UibuRaOB5a_fXv6QTC3DvyauEMrg5n4w_1LNw_15gn8-uUG3csqrPzlyKZrVeoJUVPOkrNbCTI3ilBL4cckYDIyj2Ss1U02BrKwXuY0r09", "width": 4032}], "place_id": "ChIJl-sBDI-pQjQRuAvhyCfLSGU", "plus_code": {"compound_code": "2GCH+XG 台灣台北市大安區", "global_code": "7QQ32GCH+XG"}, "price_level": 2, "rating": 4.1, "reference": "ChIJl-sBDI-pQjQRuAvhyCfLSGU", "scope": "GOOGLE", "types": ["meal_delivery", "restaurant", "food", "point_of_interest", "establishment"], "user_ratings_total": 768, "vicinity": "大安區師大路105巷8號"}, {"business_status": "OPERATIONAL", "geometry": {"location": {"lat": 25.027709, "lng": 121.5305599}, "viewport": {"northeast": {"lat": 25.0290595802915, "lng": 121.5318793802915}, "southwest": {"lat": 25.0263616197085, "lng": 121.5291814197085}}}, "icon": "https://maps.gstatic.com/mapfiles/place_api/icons/v1/png_71/restaurant-71.png", "icon_background_color": "#FF9E67", "icon_mask_base_uri": "https://maps.gstatic.com/mapfiles/place_api/icons/v2/restaurant_pinlet", "name": "大鵬灣食堂（請先提前電話預約）", "opening_hours": {"open_now": false}, "photos": [{"height": 2160, "html_attributions": ["<a href=\"https://maps.google.com/maps/contrib/110648944234845124397\">Sunny Chan</a>"], "photo_reference": "AZose0nG9rD-MdUDq18JckaMiRH9UgKzDCXWCMB3hZZ4W5GasjN_cCodjJhqjF04Ycqn2XwxNhQGOg3HhP98ZinQkT3xrXMuk-ucXnC_yu9cOFsEo4MT9CHK125dPTkd1XRQXudjIMmaGZWXoQGzEKNsMYWGXHhZGxWgqfJGrMr1YljhUcip", "width": 2880}], "place_id": "ChIJlxMXHHCpQjQRe-gv2tDCc6k", "plus_code": {"compound_code": "2GHJ+36 台灣台北市大安區", "global_code": "7QQ32GHJ+36"}, "price_level": 3, "rating": 4.1, "reference": "ChIJlxMXHHCpQjQRe-gv2tDCc6k", "scope": "GOOGLE", "types": ["restaurant", "food", "point_of_interest", "establishment"], "user_ratings_total": 271, "vicinity": "大安區和平東路一段141巷9號1樓"}, {"business_status": "OPERATIONAL", "geometry": {"location": {"lat": 25.02894059999999, "lng": 121.5296174}, "viewport": {"northeast": {"lat": 25.0302904802915, "lng": 121.5309823302915}, "southwest": {"lat": 25.0275925197085, "lng": 121.5282843697085}}}, "icon": "https://maps.gstatic.com/mapfiles/place_api/icons/v1/png_71/restaurant-71.png", "icon_background_color": "#FF9E67", "icon_mask_base_uri": "https://maps.gstatic.com/mapfiles/place_api/icons/v2/restaurant_pinlet", "name": "香港鑫華茶餐廳", "opening_hours": {"open_now": false}, "photos": [{"height": 3024, "html_attributions": ["<a href=\"https://maps.google.com/maps/contrib/115750522556999846515\">TSAICHEN YANG</a>"], "photo_reference": "AZose0lTSnN1fydKSHkduAupNKlREv8XV_fiybKeI9Pz28sU_d_2KP51EXmhCamOHgZoeQrHfuJXb3esWfGjHxWKH3o7jP7f4GW36M6c6q7_Z-VdlryMQvZAmzK0rnL5cCA5zwXhOJB4QsVS7IJo6tmN1lhcZBpSxVj0kfqD4Kr9xCABnfLV", "width": 4032}], "place_id": "ChIJI-fDY4OpQjQRCTU_iaWpbeA", "plus_code": {"compound_code": "2GHH+HR 台灣台北市大安區", "global_code": "7QQ32GHH+HR"}, "price_level": 2, "rating": 4.1, "reference": "ChIJI-fDY4OpQjQRCTU_iaWpbeA", "scope": "GOOGLE", "types": ["restaurant", "food", "point_of_interest", "establishment"], "user_ratings_total": 3290, "vicinity": "大安區永康街48號"}, {"business_status": "OPERATIONAL", "geometry": {"location": {"lat": 25.0328506, "lng": 121.5287807}, "viewport": {"northeast": {"lat": 25.03414418029151, "lng": 121.5301174302915}, "southwest": {"lat": 25.0314462197085, "lng": 121.5274194697085}}}, "icon": "https://maps.gstatic.com/mapfiles/place_api/icons/v1/png_71/restaurant-71.png", "icon_background_color": "#FF9E67", "icon_mask_base_uri": "https://maps.gstatic.com/mapfiles/place_api/icons/v2/restaurant_pinlet", "name": "東門餃子館", "opening_hours": {"open_now": false}, "photos": [{"height": 4000, "html_attributions": ["<a href=\"https://maps.google.com/maps/contrib/104504004035276350488\">東門餃子館</a>"], "photo_reference": "AZose0kDmJEdOTfVBBgrHSxp8gkvfpJrpdPO1f8-hh5GxoxyWnDNbsoyqIMwsnKuPXjlcy-5q0B09WWPwWgu9et5bQCe8ADI3O1lfNCnrdgXrdgW3oIWYqlJGYu4YT-7OmRVLhJsgdupH30RznaOwF2cJcT1S0xwqtdO8qw9jcsSr2pF2YV2", "width": 6000}], "place_id": "ChIJuY8dWoKpQjQRW4J398-JSrQ", "plus_code": {"compound_code": "2GMH+4G 台灣台北市大安區", "global_code": "7QQ32GMH+4G"}, "price_level": 2, "rating": 3.7, "reference": "ChIJuY8dWoKpQjQRW4J398-JSrQ", "scope": "GOOGLE", "types": ["restaurant", "food", "point_of_interest", "establishment"], "user_ratings_total": 3408, "vicinity": "大安區金山南路二段31巷37號"}, {"business_status": "OPERATIONAL", "geometry": {"location": {"lat": 25.026498, "lng": 121.5325306}, "viewport": {"northeast": {"lat": 25.02777023029151, "lng": 121.5338715302915}, "southwest": {"lat": 25.0250722697085, "lng": 121.5311735697085}}}, "icon": "https://maps.gstatic.com/mapfiles/place_api/icons/v1/png_71/restaurant-71.png", "icon_background_color": "#FF9E67", "icon_mask_base_uri": "https://maps.gstatic.com/mapfiles/place_api/icons/v2/restaurant_pinlet", "name": "春天素食餐廳（台北大安店）", "opening_hours": {"open_now": false}, "photos": [{"height": 3072, "html_attributions": ["<a href=\"https://maps.google.com/maps/contrib/116979028738642702049\">蛋頭哥</a>"], "photo_reference": "AZose0lP_waNwhjt_igYH7-mGgbd4AcImLyozRUgsNmSFgXrWMzDp98LRaK2ILJVMh-j96QsEJIdz9-mrNo0D1qeH_jaSyWEoHyZoCLQj0XSVu2ccIQE33EfoObHrIX8F0VSeCaLrLoVe13HfWyKv6lN0Gvn3XG01oyjvbE11Kz8qKCYE1Bc", "width": 4096}], "place_id": "ChIJxb5PjoapQjQRQxCdflMrDQQ", "plus_code": {"compound_code": "2GGM+H2 台灣台北市大安區", "global_code": "7QQ32GGM+H2"}, "price_level": 2, "rating": 4, "reference": "ChIJxb5PjoapQjQRQxCdflMrDQQ", "scope": "GOOGLE", "types": ["restaurant", "food", "point_of_interest", "establishment"], "user_ratings_total": 2133, "vicinity": "3F, No. 177號, 和平東路一段, 大安區"}, {"business_status": "OPERATIONAL", "geometry": {"location": {"lat": 25.032044, "lng": 121.5292868}, "viewport": {"northeast": {"lat": 25.0333759802915, "lng": 121.5306327302915}, "southwest": {"lat": 25.0306780197085, "lng": 121.5279347697085}}}, "icon": "https://maps.gstatic.com/mapfiles/place_api/icons/v1/png_71/restaurant-71.png", "icon_background_color": "#FF9E67", "icon_mask_base_uri": "https://maps.gstatic.com/mapfiles/place_api/icons/v2/restaurant_pinlet", "name": "Rice Cafe 杓文字", "opening_hours": {"open_now": false}, "photos": [{"height": 3064, "html_attributions": ["<a href=\"https://maps.google.com/maps/contrib/117347621100845170199\">Song-yang Tong</a>"], "photo_reference": "AZose0mssIAqtN8HosEm21Ehp7xwcJiYqNCNr5sdGmJM8j_wkkgwlnJ8IGONFVFRhJTNnaoC_QPPT8GGy9lqHtCnEfBTXzqe5eZyhpOkARQcv7Zr-l2N2DqM1dwmztnIMntxnJE66QKwdkOjoPvFHRaYPv-BAN3XgfFUIxnMCpXYBeCIcMeF", "width": 4592}], "place_id": "ChIJibxETYKpQjQRnJOXvfnziVU", "plus_code": {"compound_code": "2GJH+RP 台灣台北市大安區", "global_code": "7QQ32GJH+RP"}, "price_level": 2, "rating": 4.1, "reference": "ChIJibxETYKpQjQRnJOXvfnziVU", "scope": "GOOGLE", "types": ["restaurant", "food", "point_of_interest", "establishment"], "user_ratings_total": 684, "vicinity": "大安區永康街10巷7號"}, {"business_status": "OPERATIONAL", "geometry": {"location": {"lat": 25.019468, "lng": 121.529766}, "viewport": {"northeast": {"lat": 25.0207790802915, "lng": 121.5310696802915}, "southwest": {"lat": 25.01808111970849, "lng": 121.5283717197085}}}, "icon": "https://maps.gstatic.com/mapfiles/place_api/icons/v1/png_71/restaurant-71.png", "icon_background_color": "#FF9E67", "icon_mask_base_uri": "https://maps.gstatic.com/mapfiles/place_api/icons/v2/restaurant_pinlet", "name": "摩斯漢堡 羅斯福路店", "opening_hours": {"open_now": false}, "photos": [{"height": 3120, "html_attributions": ["<a href=\"https://maps.google.com/maps/contrib/109409512595253494732\">邱淑月</a>"], "photo_reference": "AZose0l2zDJ56aSQREJlAfV6EwqySYOobAsPzaYQDSDJoSuMOWTB-f3c3hGyoSnw4MawiIz9se9D9n72L-CLm6egatwwDPVGih4563PUWKYj2-ufDE6KBk6mOD67MBzYeUju2xlviWRtxed2mj_Fra0hggsAGZ80PXbLaQhqFt4eZgG-wBtY", "width": 4160}], "place_id": "ChIJR4y1_YapQjQRBvTjPhu3iJs", "plus_code": {"compound_code": "2G9H+QW 台灣台北市大安區", "global_code": "7QQ32G9H+QW"}, "price_level": 2, "rating": 4, "reference": "ChIJR4y1_YapQjQRBvTjPhu3iJs", "scope": "GOOGLE", "types": ["restaurant", "food", "point_of_interest", "establishment"], "user_ratings_total": 2064, "vicinity": "大安區羅斯福路三段233號"}, {"business_status": "OPERATIONAL", "geometry": {"location": {"lat": 25.0286325, "lng": 121.5192886}, "viewport": {"northeast": {"lat": 25.0299475302915, "lng": 121.5205910802915}, "southwest": {"lat": 25.0272495697085, "lng": 121.5178931197085}}}, "icon": "https://maps.gstatic.com/mapfiles/place_api/icons/v1/png_71/restaurant-71.png", "icon_background_color": "#FF9E67", "icon_mask_base_uri": "https://maps.gstatic.com/mapfiles/place_api/icons/v2/restaurant_pinlet", "name": "頂呱呱", "opening_hours": {"open_now": false}, "photos": [{"height": 1920, "html_attributions": ["<a href=\"https://maps.google.com/maps/contrib/100617039095560854645\">Jocelyn</a>"], "photo_reference": "AZose0klgHQErA6Tv5KkOWV_1HJlluMGvs44qC3K-u-cQXcFymOUSHYst_TWnlGJkrTaZIdWHpeJCv9BVhVUaP2V5lU13DzxrDYYWwNpqYgBRUXU01FgkTOxz4M029gA_5GUdImNQj3xK1aFepDmKbB4clVYjHOYGUI9pvxgh0CA6LfT51WG", "width": 2560}], "place_id": "ChIJY6x2PnqpQjQRm56FdpB8uTY", "plus_code": {"compound_code": "2GH9+FP 台灣台北市中正區", "global_code": "7QQ32GH9+FP"}, "price_level": 2, "rating": 3.8, "reference": "ChIJY6x2PnqpQjQRm56FdpB8uTY", "scope": "GOOGLE", "types": ["restaurant", "food", "point_of_interest", "establishment"], "user_ratings_total": 617, "vicinity": "中正區南昌路二段3號"}, {"business_status": "OPERATIONAL", "geometry": {"location": {"lat": 25.0238154, "lng": 121.5291724}, "viewport": {"northeast": {"lat": 25.0252173302915, "lng": 121.5305281802915}, "southwest": {"lat": 25.02251936970849, "lng": 121.5278302197085}}}, "icon": "https://maps.gstatic.com/mapfiles/place_api/icons/v1/png_71/restaurant-71.png", "icon_background_color": "#FF9E67", "icon_mask_base_uri": "https://maps.gstatic.com/mapfiles/place_api/icons/v2/restaurant_pinlet", "name": "甘泉魚麵師大店", "opening_hours": {"open_now": false}, "photos": [{"height": 3036, "html_attributions": ["<a href=\"https://maps.google.com/maps/contrib/107936307942902599604\">John Wang</a>"], "photo_reference": "AZose0m3uQaNpBP-c9XwqOH2ivE5_iVGXNRZN2euKcegWbhKohVTUwLB02MUvU5gOrOozSbGmFNqtg3bVUXShMr0Vxjf7_AHLho9axHd7lTPh1XMokq-Fgroe0csxfp6TkwAIaASgv8LBKWrT24Lwg5xXCpDwrOaqOXj53T5yF4x9DnTKLzA", "width": 4048}], "place_id": "ChIJza1QdI-pQjQR76U2xWZdX04", "plus_code": {"compound_code": "2GFH+GM 台灣台北市大安區", "global_code": "7QQ32GFH+GM"}, "price_level": 2, "rating": 3.3, "reference": "ChIJza1QdI-pQjQR76U2xWZdX04", "scope": "GOOGLE", "types": ["restaurant", "food", "point_of_interest", "establishment"], "user_ratings_total": 530, "vicinity": "大安區師大路59巷12號"}, {"business_status": "OPERATIONAL", "geometry": {"location": {"lat": 25.0314467, "lng": 121.529463}, "viewport": {"northeast": {"lat": 25.0327903802915, "lng": 121.5308484302915}, "southwest": {"lat": 25.0300924197085, "lng": 121.5281504697085}}}, "icon": "https://maps.gstatic.com/mapfiles/place_api/icons/v1/png_71/restaurant-71.png", "icon_background_color": "#FF9E67", "icon_mask_base_uri": "https://maps.gstatic.com/mapfiles/place_api/icons/v2/restaurant_pinlet", "name": "呂桑食堂", "opening_hours": {"open_now": false}, "photos": [{"height": 3024, "html_attributions": ["<a href=\"https://maps.google.com/maps/contrib/117101027404077435210\">J Yang</a>"], "photo_reference": "AZose0kqthLqA1KecsLp6xAOoUXGGigh5O7Gxr6G-QFXiu5ZYnHFsi-0rVzrfTvPwf2CP3XOs9nsVzuPZWl_ao7xqE0iYHh20fMufgi5Tfg-xTBciXCZd3878LQCPEz6ExKI0I2Qv5CjB17JEERLvEiDRhsjeoQwTGgjVKciwQSZd2Gfdy7-", "width": 4032}], "place_id": "ChIJkbMnsYOpQjQRdVNvT-F0qBA", "plus_code": {"compound_code": "2GJH+HQ 台灣台北市大安區", "global_code": "7QQ32GJH+HQ"}, "price_level": 2, "rating": 3.8, "reference": "ChIJkbMnsYOpQjQRdVNvT-F0qBA", "scope": "GOOGLE", "types": ["restaurant", "food", "point_of_interest", "establishment"], "user_ratings_total": 1173, "vicinity": "大安區永康街12-5號"}, {"business_status": "OPERATIONAL", "geometry": {"location": {"lat": 25.0321083, "lng": 121.5290084}, "viewport": {"northeast": {"lat": 25.0334639302915, "lng": 121.5303186802915}, "southwest": {"lat": 25.03076596970849, "lng": 121.5276207197085}}}, "icon": "https://maps.gstatic.com/mapfiles/place_api/icons/v1/png_71/restaurant-71.png", "icon_background_color": "#FF9E67", "icon_mask_base_uri": "https://maps.gstatic.com/mapfiles/place_api/icons/v2/restaurant_pinlet", "name": "古典玫瑰園 台北永康店", "opening_hours": {"open_now": false}, "photos": [{"height": 1365, "html_attributions": ["<a href=\"https://maps.google.com/maps/contrib/112067847840387156526\">古典玫瑰園－永康店</a>"], "photo_reference": "AZose0mmNJlZBnZzyrG1SPE6IQhsIGPb8fGzRkaEWQ73gflOH97CWkcuVu6-srwjUdi-Ov2oCzAoVE5y8098XWXSthBb2bkPTAYMkuENK5z_g7faLL0uu4TpdyKNrbMFBbyGG7eCF94lIhkH1GwmRoko0Hn6nX3gZ_hj4ttN4igTvjCd1T62", "width": 2048}], "place_id": "ChIJCVYxn4-pQjQR35RnA9CfukI", "plus_code": {"compound_code": "2GJH+RJ 台灣台北市大安區", "global_code": "7QQ32GJH+RJ"}, "price_level": 2, "rating": 4.2, "reference": "ChIJCVYxn4-pQjQR35RnA9CfukI", "scope": "GOOGLE", "types": ["restaurant", "food", "point_of_interest", "establishment"], "user_ratings_total": 947, "vicinity": "大安區麗水街3之1號"}, {"business_status": "OPERATIONAL", "geometry": {"location": {"lat": 25.0282712, "lng": 121.5222065}, "viewport": {"northeast": {"lat": 25.0296126302915, "lng": 121.5235590802915}, "southwest": {"lat": 25.0269146697085, "lng": 121.5208611197085}}}, "icon": "https://maps.gstatic.com/mapfiles/place_api/icons/v1/png_71/restaurant-71.png", "icon_background_color": "#FF9E67", "icon_mask_base_uri": "https://maps.gstatic.com/mapfiles/place_api/icons/v2/restaurant_pinlet", "name": "魚日式料理", "opening_hours": {"open_now": false}, "photos": [{"height": 3024, "html_attributions": ["<a href=\"https://maps.google.com/maps/contrib/111204314645120534398\">Tommy</a>"], "photo_reference": "AZose0nWLrN71SDHr9DC6YH7lbKWn-KH3lA3ljn0qEq2kjdjsnZCJA2N9UlLrb5rQEvHvZI090BoPjbQa6OdFMU49tbyKce-9HtNs5CzOR44c3JvAW-G7pNQCkGL4RIBkM7AczFwieVR-eCr3XEw_F9Qoff0jQeGnadghtqbntY3j_9GnV7n", "width": 4032}], "place_id": "ChIJt1azrJupQjQRDPGRLGX8ZoU", "plus_code": {"compound_code": "2GHC+8V 台灣台北市大安區", "global_code": "7QQ32GHC+8V"}, "price_level": 2, "rating": 4.1, "reference": "ChIJt1azrJupQjQRDPGRLGX8ZoU", "scope": "GOOGLE", "types": ["restaurant", "food", "point_of_interest", "establishment"], "user_ratings_total": 1079, "vicinity": "大安區羅斯福路二段15巷10號"}, {"business_status": "OPERATIONAL", "geometry": {"location": {"lat": 25.02781149999999, "lng": 121.5215896}, "viewport": {"northeast": {"lat": 25.0291986302915, "lng": 121.5230002802915}, "southwest": {"lat": 25.02650066970849, "lng": 121.5203023197085}}}, "icon": "https://maps.gstatic.com/mapfiles/place_api/icons/v1/png_71/restaurant-71.png", "icon_background_color": "#FF9E67", "icon_mask_base_uri": "https://maps.gstatic.com/mapfiles/place_api/icons/v2/restaurant_pinlet", "name": "すき家 SUKIYA 古亭店", "opening_hours": {"open_now": true}, "photos": [{"height": 3024, "html_attributions": ["<a href=\"https://maps.google.com/maps/contrib/116429654670073664504\">梁大東</a>"], "photo_reference": "AZose0kpeZO369wepvZzIHbbLc-IdJELfctMDw4DtLFxyceZcAVKK2A45ks6HqktZ8fgg3dNxyoiUNlDyDHMsVXuKTAqoPYhWJIcGmSb0vST0RHTnnzJ3474U28lzqbdTKskknA50cdDx_DZcQlua5lxqiKThTsDsVnaKh4kMDkruVhkwf96", "width": 4032}], "place_id": "ChIJF_XsV8nWDRQRkvlW87LjAxY", "plus_code": {"compound_code": "2GHC+4J 台灣台北市中正區", "global_code": "7QQ32GHC+4J"}, "price_level": 1, "rating": 4.1, "reference": "ChIJF_XsV8nWDRQRkvlW87LjAxY", "scope": "GOOGLE", "types": ["restaurant", "food", "point_of_interest", "establishment"], "user_ratings_total": 4196, "vicinity": "中正區羅斯福路二段50號"}, {"business_status": "OPERATIONAL", "geometry": {"location": {"lat": 25.0266205, "lng": 121.5215302}, "viewport": {"northeast": {"lat": 25.0279295302915, "lng": 121.5228394302915}, "southwest": {"lat": 25.0252315697085, "lng": 121.5201414697085}}}, "icon": "https://maps.gstatic.com/mapfiles/place_api/icons/v1/png_71/restaurant-71.png", "icon_background_color": "#FF9E67", "icon_mask_base_uri": "https://maps.gstatic.com/mapfiles/place_api/icons/v2/restaurant_pinlet", "name": "阿妹麵店", "opening_hours": {"open_now": false}, "photos": [{"height": 4032, "html_attributions": ["<a href=\"https://maps.google.com/maps/contrib/111986039424027548436\">Kai-Wen Zhao</a>"], "photo_reference": "AZose0lswcEEWAO6jdV4RcC1lPfMaOjYksFdjoKdUoXAUYA94pEc1W5DrPFsS-senxv-BDNmmFV8xQTWI_SVNQC453Tcq9R6kUzr-IRFMu74rBc1x12vefWXPB-mHK8pxHEcCq_LUOojCEsbJpipYQJESyoJveYo87K9vJgcyGF2gAythm0", "width": 3024}], "place_id": "ChIJk2inbZqpQjQRuqwHrVUAYlA", "plus_code": {"compound_code": "2GGC+JJ 台灣台北市中正區", "global_code": "7QQ32GGC+JJ"}, "rating": 4, "reference": "ChIJk2inbZqpQjQRuqwHrVUAYlA", "scope": "GOOGLE", "types": ["restaurant", "store", "food", "point_of_interest", "establishment"], "user_ratings_total": 528, "vicinity": "中正區南昌路二段105號"}, {"business_status": "OPERATIONAL", "geometry": {"location": {"lat": 25.032716, "lng": 121.529718}, "viewport": {"northeast": {"lat": 25.0340462802915, "lng": 121.5310590802915}, "southwest": {"lat": 25.0313483197085, "lng": 121.5283611197085}}}, "icon": "https://maps.gstatic.com/mapfiles/place_api/icons/v1/png_71/restaurant-71.png", "icon_background_color": "#FF9E67", "icon_mask_base_uri": "https://maps.gstatic.com/mapfiles/place_api/icons/v2/restaurant_pinlet", "name": "誠記越南麵食館", "opening_hours": {"open_now": false}, "photos": [{"height": 1440, "html_attributions": ["<a href=\"https://maps.google.com/maps/contrib/109286971744033568074\">HH K</a>"], "photo_reference": "AZose0lQhSOPwng9aZ7kvMqhUkxIm47HeXHI5CF0dbVdJ8U52LJZ0xBv4xyppxCenVfWY_0lizVhCd1jwBh4aVhLWz2e4V_GdEJ5P03JPilgH5gHGWHtRWF5-jM3FJqM_quXeVmg4IutZW0zC8MC6MSoEjVHyFWWv6kB03W0IYbXvyNozxe9", "width": 2560}], "place_id": "ChIJ9biYWoKpQjQRIEFdxx31tmg", "plus_code": {"compound_code": "2GMH+3V 台灣台北市大安區", "global_code": "7QQ32GMH+3V"}, "price_level": 2, "rating": 3.8, "reference": "ChIJ9biYWoKpQjQRIEFdxx31tmg", "scope": "GOOGLE", "types": ["restaurant", "store", "food", "point_of_interest", "establishment"], "user_ratings_total": 4015, "vicinity": "大安區永康街6巷1號"}, {"business_status": "OPERATIONAL", "geometry": {"location": {"lat": 25.0259406, "lng": 121.5206515}, "viewport": {"northeast": {"lat": 25.0272831802915, "lng": 121.5220221302915}, "southwest": {"lat": 25.0245852197085, "lng": 121.5193241697085}}}, "icon": "https://maps.gstatic.com/mapfiles/place_api/icons/v1/png_71/restaurant-71.png", "icon_background_color": "#FF9E67", "icon_mask_base_uri": "https://maps.gstatic.com/mapfiles/place_api/icons/v2/restaurant_pinlet", "name": "紅葉日式愛好燒", "opening_hours": {"open_now": false}, "photos": [{"height": 2268, "html_attributions": ["<a href=\"https://maps.google.com/maps/contrib/108748073208992499139\">譚景豪</a>"], "photo_reference": "AZose0kB9XhbAkuORVU5b0MrBZjVxG8KVedl6VBuLnpO6wUo62tlSUz40m7eRulpGA-B7KoqRc1c_3N0UDIhEiStDsz2mSlq-OsaUzWSpVuoKl4ucX0RpCBv-nVdTS1-PMDwpkPtQmhxrU0w6iUO5ABmgFULE4RqdLBXOYC7KfIzOzJGMFGE", "width": 4032}], "place_id": "ChIJR0aUoJCpQjQRUz136OlqtKA", "plus_code": {"compound_code": "2GGC+97 台灣台北市中正區", "global_code": "7QQ32GGC+97"}, "price_level": 1, "rating": 3.9, "reference": "ChIJR0aUoJCpQjQRUz136OlqtKA", "scope": "GOOGLE", "types": ["restaurant", "food", "point_of_interest", "establishment"], "user_ratings_total": 863, "vicinity": "中正區晉江街18巷18弄4號"}, {"business_status": "OPERATIONAL", "geometry": {"location": {"lat": 25.0282614, "lng": 121.5302455}, "viewport": {"northeast": {"lat": 25.0296387302915, "lng": 121.5315944802915}, "southwest": {"lat": 25.0269407697085, "lng": 121.5288965197085}}}, "icon": "https://maps.gstatic.com/mapfiles/place_api/icons/v1/png_71/restaurant-71.png", "icon_background_color": "#FF9E67", "icon_mask_base_uri": "https://maps.gstatic.com/mapfiles/place_api/icons/v2/restaurant_pinlet", "name": "A.B HOUSE 義式私房料理", "opening_hours": {"open_now": false}, "photos": [{"height": 1702, "html_attributions": ["<a href=\"https://maps.google.com/maps/contrib/103748703721359594655\">Joseph Yang</a>"], "photo_reference": "AZose0lmop5-5KNLls4l5TaEGZmiSPuNvZ813_GYGEM4AwJYLXPNLyiA169yUxuoMn1YtSimHFOrrqc3jVecu9HngBGFKGQFpWKK3CLyl-_En5utQ1-TJJ4qPIeSelaCNb229gbRpUMdjoy-JHkbqhB8UjibT0aR8fXKN8AajO1LIHqEgGrh", "width": 2449}], "place_id": "ChIJrRR9bYSpQjQRPhG2Al-8bhE", "plus_code": {"compound_code": "2GHJ+83 台灣台北市大安區", "global_code": "7QQ32GHJ+83"}, "price_level": 2, "rating": 4.4, "reference": "ChIJrRR9bYSpQjQRPhG2Al-8bhE", "scope": "GOOGLE", "types": ["restaurant", "food", "point_of_interest", "establishment"], "user_ratings_total": 617, "vicinity": "大安區潮州街188號"}, {"business_status": "OPERATIONAL", "geometry": {"location": {"lat": 25.0308284, "lng": 121.5295899}, "viewport": {"northeast": {"lat": 25.0321771302915, "lng": 121.5309129302915}, "southwest": {"lat": 25.0294791697085, "lng": 121.5282149697085}}}, "icon": "https://maps.gstatic.com/mapfiles/place_api/icons/v1/png_71/restaurant-71.png", "icon_background_color": "#FF9E67", "icon_mask_base_uri": "https://maps.gstatic.com/mapfiles/place_api/icons/v2/restaurant_pinlet", "name": "紅蜻蜓食事處", "opening_hours": {"open_now": false}, "photos": [{"height": 4080, "html_attributions": ["<a href=\"https://maps.google.com/maps/contrib/113281373333254214697\">Dawei Lin</a>"], "photo_reference": "AZose0mIQjp6yGV79_bZp0cDG3IIRl5XpsHiqQqiLJmEmPTbh_SwK9j8Gf7QjAyPsVXmD4O73upA3z47DJ3JEmkHH92rZQ19pXvQtspZCOqtE1V_DC32n06NBBqHcESb-XZ-7cTsM1gk4I_higu1iRgSnc1tJpc-RcXilg3-BnzOvU2C0HeA", "width": 3072}], "place_id": "ChIJT_qVvoOpQjQR0lNQZ4pe94U", "plus_code": {"compound_code": "2GJH+8R 台灣台北市大安區", "global_code": "7QQ32GJH+8R"}, "price_level": 2, "rating": 3.8, "reference": "ChIJT_qVvoOpQjQR0lNQZ4pe94U", "scope": "GOOGLE", "types": ["restaurant", "point_of_interest", "food", "establishment"], "user_ratings_total": 550, "vicinity": "大安區永康街35之1號"}, {"business_status": "OPERATIONAL", "geometry": {"location": {"lat": 25.0329387, "lng": 121.5303821}, "viewport": {"northeast": {"lat": 25.0343023302915, "lng": 121.5317660802915}, "southwest": {"lat": 25.0316043697085, "lng": 121.5290681197085}}}, "icon": "https://maps.gstatic.com/mapfiles/place_api/icons/v1/png_71/restaurant-71.png", "icon_background_color": "#FF9E67", "icon_mask_base_uri": "https://maps.gstatic.com/mapfiles/place_api/icons/v2/restaurant_pinlet", "name": "Focus kitchen肯恩廚房", "opening_hours": {"open_now": false}, "photos": [{"height": 534, "html_attributions": ["<a href=\"https://maps.google.com/maps/contrib/113089202169041948147\">Focus kitchen肯恩廚房</a>"], "photo_reference": "AZose0mtRFVR4T-6daDP8MK2hPo-vCL4X2iSzQ6Pr59p7Z1KlvVFeOArrR8shxqlKuJZ3lSAys9DUdc0xAL3VweCgWp17VbsslVCmSP9_wW7Te56gV8icvGO_Z55QIjDLwTSJeSX4UAxZrE9ahm6-YpaEE8SBaRtX2rel06taM3IVbtWnk0T", "width": 800}], "place_id": "ChIJ8eWRPYKpQjQRuXQ3tGY9wKo", "plus_code": {"compound_code": "2GMJ+55 台灣台北市大安區", "global_code": "7QQ32GMJ+55"}, "price_level": 2, "rating": 4.3, "reference": "ChIJ8eWRPYKpQjQRuXQ3tGY9wKo", "scope": "GOOGLE", "types": ["restaurant", "point_of_interest", "food", "establishment"], "user_ratings_total": 2339, "vicinity": "大安區信義路二段198巷6號"}, {"business_status": "OPERATIONAL", "geometry": {"location": {"lat": 25.0238934, "lng": 121.5344482}, "viewport": {"northeast": {"lat": 25.0252377802915, "lng": 121.5358479802915}, "southwest": {"lat": 25.0225398197085, "lng": 121.5331500197085}}}, "icon": "https://maps.gstatic.com/mapfiles/place_api/icons/v1/png_71/restaurant-71.png", "icon_background_color": "#FF9E67", "icon_mask_base_uri": "https://maps.gstatic.com/mapfiles/place_api/icons/v2/restaurant_pinlet", "name": "莫宰羊-大安台大店", "opening_hours": {"open_now": false}, "photos": [{"height": 1108, "html_attributions": ["<a href=\"https://maps.google.com/maps/contrib/105974627668361899999\">莫宰羊-大安台大店</a>"], "photo_reference": "AZose0mKeL49MYTsEumMhVUQ-1sOaTncMuKaUNjKg25_SEC_bpwuPqemg0-IfaXsiCUA7_8j6NOLDWI97LPvQnHOvMvc9tMkMVyAje1DxeuH82i5GmalETTZF0WAkaqcZQW6lzQ8WIkN8oXAYXq9YYKuQEuJrnUsbrKJFHuE_UFvvWsk03eR", "width": 1478}], "place_id": "ChIJ3xl5zIepQjQRGNQknIunDIs", "plus_code": {"compound_code": "2GFM+HQ 台灣台北市大安區", "global_code": "7QQ32GFM+HQ"}, "price_level": 2, "rating": 4.2, "reference": "ChIJ3xl5zIepQjQRGNQknIunDIs", "scope": "GOOGLE", "types": ["restaurant", "point_of_interest", "food", "establishment"], "user_ratings_total": 2719, "vicinity": "大安區新生南路三段28號"}, {"business_status": "OPERATIONAL", "geometry": {"location": {"lat": 25.0219485, "lng": 121.5271421}, "viewport": {"northeast": {"lat": 25.02324173029151, "lng": 121.5284337802915}, "southwest": {"lat": 25.0205437697085, "lng": 121.5257358197085}}}, "icon": "https://maps.gstatic.com/mapfiles/place_api/icons/v1/png_71/restaurant-71.png", "icon_background_color": "#FF9E67", "icon_mask_base_uri": "https://maps.gstatic.com/mapfiles/place_api/icons/v2/restaurant_pinlet", "name": "龍涎居雞膳食坊 師大創始店", "opening_hours": {"open_now": false}, "photos": [{"height": 3024, "html_attributions": ["<a href=\"https://maps.google.com/maps/contrib/117161015492918603087\">James Huang</a>"], "photo_reference": "AZose0mwmLYFzMkBcEgv5Wv84dlb-37v6jyKACdkoM4J-3TaxXB-h-kKKxTjrGdQJD59RBFoVvX1vcuD3fUSDFub9aIiEQiWeSz7Lk3-qIUWxewpy0QHSbu5QpKtN1biEWnRCxqaesxRjMxn56lHe59zhjmgfvd_I3y9beXuPJtOe_9-uffq", "width": 4032}], "place_id": "ChIJD_HEZY-pQjQRRtBtmpSmIX8", "plus_code": {"compound_code": "2GCG+QV 台灣台北市大安區", "global_code": "7QQ32GCG+QV"}, "price_level": 2, "rating": 3.8, "reference": "ChIJD_HEZY-pQjQRRtBtmpSmIX8", "scope": "GOOGLE", "types": ["restaurant", "point_of_interest", "food", "establishment"], "user_ratings_total": 835, "vicinity": "大安區羅斯福路三段135號"}, {"business_status": "OPERATIONAL", "geometry": {"location": {"lat": 25.028911, "lng": 121.521357}, "viewport": {"northeast": {"lat": 25.0302128302915, "lng": 121.5226291802915}, "southwest": {"lat": 25.02751486970849, "lng": 121.5199312197085}}}, "icon": "https://maps.gstatic.com/mapfiles/place_api/icons/v1/png_71/restaurant-71.png", "icon_background_color": "#FF9E67", "icon_mask_base_uri": "https://maps.gstatic.com/mapfiles/place_api/icons/v2/restaurant_pinlet", "name": "王品牛排 台北羅斯福店", "opening_hours": {"open_now": false}, "photos": [{"height": 1441, "html_attributions": ["<a href=\"https://maps.google.com/maps/contrib/106777619287197277317\">王品牛排 台北羅斯福店</a>"], "photo_reference": "AZose0kiXT7sFEsKeyNUa42fgdL5iUsnrfU_kaEuawF7czwY6ce71wtM1C1oEdLlNqSEKZ5pFWWReq_a_n9PMIEwK82Em-5RbAlqXPfCYd-y1tNdcedx5ui0AbJRGVLwiF-7HzXvtOfHciylWmxna1vxqZnoPDefOeI6jAYAYK0xeVq4Gn9O", "width": 2560}], "place_id": "ChIJwXTajYapQjQRiiVNmhlyrNk", "plus_code": {"compound_code": "2GHC+HG 台灣台北市中正區", "global_code": "7QQ32GHC+HG"}, "price_level": 3, "rating": 4.7, "reference": "ChIJwXTajYapQjQRiiVNmhlyrNk", "scope": "GOOGLE", "types": ["restaurant", "point_of_interest", "food", "establishment"], "user_ratings_total": 3788, "vicinity": "中正區羅斯福路二段9號"}, {"business_status": "OPERATIONAL", "geometry": {"location": {"lat": 25.0232492, "lng": 121.5280963}, "viewport": {"northeast": {"lat": 25.02463738029151, "lng": 121.5294494302915}, "southwest": {"lat": 25.0219394197085, "lng": 121.5267514697085}}}, "icon": "https://maps.gstatic.com/mapfiles/place_api/icons/v1/png_71/restaurant-71.png", "icon_background_color": "#FF9E67", "icon_mask_base_uri": "https://maps.gstatic.com/mapfiles/place_api/icons/v2/restaurant_pinlet", "name": "Vino Vino Caf'e", "opening_hours": {"open_now": true}, "photos": [{"height": 3024, "html_attributions": ["<a href=\"https://maps.google.com/maps/contrib/101297538489290802307\">Crystal 心綺</a>"], "photo_reference": "AZose0kZ2rkJmd9KqzOdGJHnc2wDfv85-rjU1KNIzrkleSvL7146l-xye15qB-XZlv033DNYFU0WR8DGlEG5MUUsb7Ne4zwh5rtfWuh28huFi8xGYiYuviR_PWGvPZRxc2eNIXXp6ignNDT3bcIdF_a1PMTmO6DUbbYmKMvECSwhm9oqTWGb", "width": 4032}], "place_id": "ChIJYwytno-pQjQRKSSTLHtRuhY", "plus_code": {"compound_code": "2GFH+76 台灣台北市大安區", "global_code": "7QQ32GFH+76"}, "price_level": 2, "rating": 3.6, "reference": "ChIJYwytno-pQjQRKSSTLHtRuhY", "scope": "GOOGLE", "types": ["restaurant", "point_of_interest", "food", "establishment"], "user_ratings_total": 551, "vicinity": "大安區師大路80巷2號"}, {"business_status": "OPERATIONAL", "geometry": {"location": {"lat": 25.0217776, "lng": 121.5280121}, "viewport": {"northeast": {"lat": 25.02317273029151, "lng": 121.5293922302915}, "southwest": {"lat": 25.0204747697085, "lng": 121.5266942697085}}}, "icon": "https://maps.gstatic.com/mapfiles/place_api/icons/v1/png_71/restaurant-71.png", "icon_background_color": "#FF9E67", "icon_mask_base_uri": "https://maps.gstatic.com/mapfiles/place_api/icons/v2/restaurant_pinlet", "name": "KGB Kiwi Gourmet Burgers", "opening_hours": {"open_now": false}, "photos": [{"height": 816, "html_attributions": ["<a href=\"https://maps.google.com/maps/contrib/118253750421803979454\">KGB Kiwi Gourmet Burgers</a>"], "photo_reference": "AZose0lJjgOjEfQOGio7r8w33m5ini2b4XPR7vFwSEbFwPLq-ihxp4EzK4WLcKF1wMUiqVdpAK_hEOU0Wp_r9g9jCJcwjzxhClvzGuwgMrKX67wkAL74hlsReIpYKXs8PQTSOwGJi0pFQn-78q1MDtk36T8cstno6-THdn3vnI0mNXiNDQvZ", "width": 1632}], "place_id": "ChIJNTAArY-pQjQR0G-DgiWp9dc", "plus_code": {"compound_code": "2GCH+P6 台灣台北市大安區", "global_code": "7QQ32GCH+P6"}, "price_level": 2, "rating": 4.1, "reference": "ChIJNTAArY-pQjQR0G-DgiWp9dc", "scope": "GOOGLE", "types": ["restaurant", "point_of_interest", "food", "establishment"], "user_ratings_total": 1413, "vicinity": "大安區師大路114巷5號"}, {"business_status": "OPERATIONAL", "geometry": {"location": {"lat": 25.027535, "lng": 121.522371}, "viewport": {"northeast": {"lat": 25.02881208029151, "lng": 121.5236660802915}, "southwest": {"lat": 25.0261141197085, "lng": 121.5209681197085}}}, "icon": "https://maps.gstatic.com/mapfiles/place_api/icons/v1/png_71/restaurant-71.png", "icon_background_color": "#FF9E67", "icon_mask_base_uri": "https://maps.gstatic.com/mapfiles/place_api/icons/v2/restaurant_pinlet", "name": "麥當勞-羅斯福餐廳", "opening_hours": {"open_now": false}, "photos": [{"height": 3024, "html_attributions": ["<a href=\"https://maps.google.com/maps/contrib/103714456755345789855\">A-Kwon Fang</a>"], "photo_reference": "AZose0lZxluH9hltRpUVxQece2A7uSSYSsa-t9z8_W9y_VodcgYRw1dQhopulFfe3P5p8uverrsRyUjuGTkNvc8eu0fMXNSMcTjgaVw2Wf8vnIPTAybktaFPgmDD5QeYNkXvacSpt6vVAU5DJZohvTCFlGFou8qu0HA3dtIWj6Q70JHp92jq", "width": 4032}], "place_id": "ChIJWdQlWpqpQjQRGp8WGVvaLCg", "plus_code": {"compound_code": "2GHC+2W 台灣台北市大安區", "global_code": "7QQ32GHC+2W"}, "price_level": 1, "rating": 3.9, "reference": "ChIJWdQlWpqpQjQRGp8WGVvaLCg", "scope": "GOOGLE", "types": ["restaurant", "point_of_interest", "food", "establishment"], "user_ratings_total": 3736, "vicinity": "大安區羅斯福路二段45號"}, {"business_status": "OPERATIONAL", "geometry": {"location": {"lat": 25.0291957, "lng": 121.5297393}, "viewport": {"northeast": {"lat": 25.0305438302915, "lng": 121.5310652302915}, "southwest": {"lat": 25.0278458697085, "lng": 121.5283672697085}}}, "icon": "https://maps.gstatic.com/mapfiles/place_api/icons/v1/png_71/restaurant-71.png", "icon_background_color": "#FF9E67", "icon_mask_base_uri": "https://maps.gstatic.com/mapfiles/place_api/icons/v2/restaurant_pinlet", "name": "大隱酒食", "opening_hours": {"open_now": false}, "photos": [{"height": 3468, "html_attributions": ["<a href=\"https://maps.google.com/maps/contrib/115273370343630040147\">高速公路</a>"], "photo_reference": "AZose0l4ViUIk4Uoj-7B5xJB8FZi3nZou0TDbLA8qQe667RWj3PKgTXg0T1akZbQ9oarYuleSLSgA8wlcBJnZJ_vSUqDvu6mRK2MvU9bosFlgRvlHDGGyt-C9uzqLMB4Itlfjrw7XaPMtrlJtfJiA0GThfn0GRlxXUAUDtK_ny01m5fWxZML", "width": 4624}], "place_id": "ChIJzeBtdYSpQjQRop5qz3tZxW0", "plus_code": {"compound_code": "2GHH+MV 台灣台北市大安區", "global_code": "7QQ32GHH+MV"}, "price_level": 2, "rating": 3.9, "reference": "ChIJzeBtdYSpQjQRop5qz3tZxW0", "scope": "GOOGLE", "types": ["restaurant", "point_of_interest", "food", "establishment"], "user_ratings_total": 490, "vicinity": "大安區永康街65號"}, {"business_status": "OPERATIONAL", "geometry": {"location": {"lat": 25.024613, "lng": 121.534308}, "viewport": {"northeast": {"lat": 25.0259145802915, "lng": 121.5356543802915}, "southwest": {"lat": 25.0232166197085, "lng": 121.5329564197085}}}, "icon": "https://maps.gstatic.com/mapfiles/place_api/icons/v1/png_71/cafe-71.png", "icon_background_color": "#FF9E67", "icon_mask_base_uri": "https://maps.gstatic.com/mapfiles/place_api/icons/v2/cafe_pinlet", "name": "紫藤廬", "opening_hours": {"open_now": false}, "photos": [{"height": 3024, "html_attributions": ["<a href=\"https://maps.google.com/maps/contrib/112722448768181809243\">Angela Chen</a>"], "photo_reference": "AZose0lWHdcxy_e2l7l_7wcWTQQnIO7B5vWOCyZoQRRgM3psJETMBrWjhX-KKPTpJ4yCo4bXrcmX98yftDQsZEWfucmvZEDxYrc6N5yiD37pzSQQebx1EFxqgc7ScFfiu4nRdIgjf6gzM5DuvR0vBCgcuYbb8Zg5FvDU81Oiqmy3iNdTl4U5", "width": 4032}], "place_id": "ChIJTW8Gs4epQjQRRA0-FAu_O0k", "plus_code": {"compound_code": "2GFM+RP 台灣台北市大安區", "global_code": "7QQ32GFM+RP"}, "price_level": 2, "rating": 4.2, "reference": "ChIJTW8Gs4epQjQRRA0-FAu_O0k", "scope": "GOOGLE", "types": ["tourist_attraction", "cafe", "restaurant", "point_of_interest", "food", "establishment"], "user_ratings_total": 1657, "vicinity": "大安區新生南路三段16巷1號"}, {"business_status": "OPERATIONAL", "geometry": {"location": {"lat": 25.0320601, "lng": 121.529195}, "viewport": {"northeast": {"lat": 25.0333894802915, "lng": 121.5305405302915}, "southwest": {"lat": 25.0306915197085, "lng": 121.5278425697085}}}, "icon": "https://maps.gstatic.com/mapfiles/place_api/icons/v1/png_71/restaurant-71.png", "icon_background_color": "#FF9E67", "icon_mask_base_uri": "https://maps.gstatic.com/mapfiles/place_api/icons/v2/restaurant_pinlet", "name": "樂麵屋 永康店", "opening_hours": {"open_now": false}, "photos": [{"height": 3024, "html_attributions": ["<a href=\"https://maps.google.com/maps/contrib/111299735760035142103\">Ruby Chen</a>"], "photo_reference": "AZose0kayz2lkXBGC4YbR1e6lJfq9H5nDeI1Gj11Luh_VaLslwR2FWU0dAuHl2q4pddvbXqfboDYaV2uEhWMhIRkHOBywQZaP-IPDj38KKyDuUDtNbR1PYQvMoI9dw3MJZ69aB9esboJ6GlGsag0JBOHzIhPCZH-vz7G8tzWOkfNIkCO_tmP", "width": 4032}], "place_id": "ChIJibxETYKpQjQRqvJwtszA4AA", "plus_code": {"compound_code": "2GJH+RM 台灣台北市大安區", "global_code": "7QQ32GJH+RM"}, "price_level": 2, "rating": 4.2, "reference": "ChIJibxETYKpQjQRqvJwtszA4AA", "scope": "GOOGLE", "types": ["restaurant", "point_of_interest", "food", "establishment"], "user_ratings_total": 2096, "vicinity": "大安區永康街10巷7號"}, {"business_status": "OPERATIONAL", "geometry": {"location": {"lat": 25.0232252, "lng": 121.5268564}, "viewport": {"northeast": {"lat": 25.0245776302915, "lng": 121.5281772802915}, "southwest": {"lat": 25.0218796697085, "lng": 121.5254793197085}}}, "icon": "https://maps.gstatic.com/mapfiles/place_api/icons/v1/png_71/restaurant-71.png", "icon_background_color": "#FF9E67", "icon_mask_base_uri": "https://maps.gstatic.com/mapfiles/place_api/icons/v2/restaurant_pinlet", "name": "瑪莉珍披薩 師大店", "opening_hours": {"open_now": false}, "photos": [{"height": 1124, "html_attributions": ["<a href=\"https://maps.google.com/maps/contrib/116853803191358348482\">Maryjane Pizza ShiDa 瑪莉珍披薩 師大店</a>"], "photo_reference": "AZose0k_fAFsAlrEq81pBPBWun2Ydf8-wfjipYHPFuk4gaNKUZGoJF3UoWNvcziXurXIk0yPDaFWyY5pUGxXcGre44a9dnWvAVOojKkNZ23E1AD5GHLy8Awi5b4l1qL-Sd4rJoRe6HmWA8xIsTV1LzC65L_BJNY-m7Fv3VsCL_-LiOm68TQN", "width": 2048}], "place_id": "ChIJHTQHYI-pQjQRqU4LFb5A6pU", "plus_code": {"compound_code": "2GFG+7P 台灣台北市大安區", "global_code": "7QQ32GFG+7P"}, "price_level": 2, "rating": 4.1, "reference": "ChIJHTQHYI-pQjQRqU4LFb5A6pU", "scope": "GOOGLE", "types": ["restaurant", "point_of_interest", "food", "establishment"], "user_ratings_total": 799, "vicinity": "大安區浦城街33-9號"}, {"business_status": "OPERATIONAL", "geometry": {"location": {"lat": 25.0314083, "lng": 121.5291904}, "viewport": {"northeast": {"lat": 25.0327214302915, "lng": 121.5305332802915}, "southwest": {"lat": 25.0300234697085, "lng": 121.5278353197085}}}, "icon": "https://maps.gstatic.com/mapfiles/place_api/icons/v1/png_71/restaurant-71.png", "icon_background_color": "#FF9E67", "icon_mask_base_uri": "https://maps.gstatic.com/mapfiles/place_api/icons/v2/restaurant_pinlet", "name": "徐羅伐韓國料理", "opening_hours": {"open_now": false}, "photos": [{"height": 3064, "html_attributions": ["<a href=\"https://maps.google.com/maps/contrib/117347621100845170199\">Song-yang Tong</a>"], "photo_reference": "AZose0lc5oFUcG_PsIyecjT9Ysr0u-RHJgm2Sji9iSPXTFrOwa_55V4g8kpbrt_lnJoasvD4sXtYe-xyMPl49w12JfONaayC39SyF5Qs_c8eDyXtljjBDPrwsziErwc9al6ubLEmezrjGquA-YBjobQ930rFUNHEWUIzi4meTMKD77zpgMam", "width": 4592}], "place_id": "ChIJNWsYsIOpQjQRoUUPLON1ugE", "plus_code": {"compound_code": "2GJH+HM 台灣台北市大安區", "global_code": "7QQ32GJH+HM"}, "price_level": 2, "rating": 3.5, "reference": "ChIJNWsYsIOpQjQRoUUPLON1ugE", "scope": "GOOGLE", "types": ["restaurant", "point_of_interest", "food", "establishment"], "user_ratings_total": 879, "vicinity": "大安區永康街14巷5號"}, {"business_status": "OPERATIONAL", "geometry": {"location": {"lat": 25.030981, "lng": 121.529095}, "viewport": {"northeast": {"lat": 25.0322928802915, "lng": 121.5304495802915}, "southwest": {"lat": 25.0295949197085, "lng": 121.5277516197085}}}, "icon": "https://maps.gstatic.com/mapfiles/place_api/icons/v1/png_71/restaurant-71.png", "icon_background_color": "#FF9E67", "icon_mask_base_uri": "https://maps.gstatic.com/mapfiles/place_api/icons/v2/restaurant_pinlet", "name": "游壽司麗水店", "opening_hours": {"open_now": false}, "photos": [{"height": 3072, "html_attributions": ["<a href=\"https://maps.google.com/maps/contrib/114632031115996514090\">Ling</a>"], "photo_reference": "AZose0mPNkEhcEvHrHbnhAJM8cytBeQui6CMz0KEEsO4UjZYMpZ51KOzF6Rt23A97pYJ4tBZyF51PwX-I20oLFhQymI-sfuOvV1YkrhlpUYUbb9XImFBjjqkDF3ELGTj8BEkaYQ3ARH1txKUwG2IIZY_Jd_jP6ijk2niCZ_9CL68UOPZmaA1", "width": 4080}], "place_id": "ChIJy6vPnYOpQjQROLEuho5E-Fk", "plus_code": {"compound_code": "2GJH+9J 台灣台北市大安區", "global_code": "7QQ32GJH+9J"}, "price_level": 2, "rating": 4.7, "reference": "ChIJy6vPnYOpQjQROLEuho5E-Fk", "scope": "GOOGLE", "types": ["restaurant", "point_of_interest", "food", "establishment"], "user_ratings_total": 1508, "vicinity": "大安區麗水街7巷7號"}, {"business_status": "OPERATIONAL", "geometry": {"location": {"lat": 25.0230301, "lng": 121.5286396}, "viewport": {"northeast": {"lat": 25.0243243302915, "lng": 121.5299832302915}, "southwest": {"lat": 25.0216263697085, "lng": 121.5272852697085}}}, "icon": "https://maps.gstatic.com/mapfiles/place_api/icons/v1/png_71/restaurant-71.png", "icon_background_color": "#FF9E67", "icon_mask_base_uri": "https://maps.gstatic.com/mapfiles/place_api/icons/v2/restaurant_pinlet", "name": "Macho Tacos 瑪丘墨式餅舖 (師大 Shida)", "opening_hours": {"open_now": false}, "photos": [{"height": 2268, "html_attributions": ["<a href=\"https://maps.google.com/maps/contrib/109095761152196233529\">Macho Tacos 瑪丘墨式餅舖 (師大 Shida)</a>"], "photo_reference": "AZose0mQh5mzkACI8YiaGsri5IMfTD45S21E9psJPEx1RoKW4XqOODg51Ef0C-Ob1gxyeXG4LlNkMhmFsvKENc5JfCy86J5u_FNTLUMvuCmaWwXxWcqnNrH7JvnYZ5hrIQC4f6u6Ye5d5QBAfEMXuKJDEyQsMVzCh-yPuhysZ4FmCKJYm8Qr", "width": 2268}], "place_id": "ChIJ_68w9Y-pQjQRa2AIDqFvRmc", "plus_code": {"compound_code": "2GFH+6F 台灣台北市大安區", "global_code": "7QQ32GFH+6F"}, "price_level": 2, "rating": 4, "reference": "ChIJ_68w9Y-pQjQRa2AIDqFvRmc", "scope": "GOOGLE", "types": ["restaurant", "point_of_interest", "food", "establishment"], "user_ratings_total": 1562, "vicinity": "大安區師大路93巷1號"}, {"business_status": "OPERATIONAL", "geometry": {"location": {"lat": 25.0245728, "lng": 121.5289434}, "viewport": {"northeast": {"lat": 25.0259651802915, "lng": 121.5302925802915}, "southwest": {"lat": 25.02326721970849, "lng": 121.5275946197085}}}, "icon": "https://maps.gstatic.com/mapfiles/place_api/icons/v1/png_71/restaurant-71.png", "icon_background_color": "#FF9E67", "icon_mask_base_uri": "https://maps.gstatic.com/mapfiles/place_api/icons/v2/restaurant_pinlet", "name": "許記生煎包", "opening_hours": {"open_now": false}, "photos": [{"height": 4032, "html_attributions": ["<a href=\"https://maps.google.com/maps/contrib/106546240017529634528\">SOPHIA</a>"], "photo_reference": "AZose0let5J4YQ6FZiGlFoOP6fw5pcA-4KbfOv-dFiP14I3xFmNSSotxgmch6aFVCUjnTQPviVpN1ocq_7Pr-pW0dkAUPQBIpF1FCWnSFabQSA82AQf4tPR7UDdntF8U5J_Xan_6sBoFs3vkwPFPPbgrleHbsbxrZe3NZajwusC50R2aROr7", "width": 3024}], "place_id": "ChIJMd7HkIWpQjQRSTSy995w1ZM", "plus_code": {"compound_code": "2GFH+RH 台灣台北市大安區", "global_code": "7QQ32GFH+RH"}, "price_level": 1, "rating": 3.9, "reference": "ChIJMd7HkIWpQjQRSTSy995w1ZM", "scope": "GOOGLE", "types": ["restaurant", "point_of_interest", "food", "establishment"], "user_ratings_total": 865, "vicinity": "大安區師大路39巷12號"}, {"business_status": "OPERATIONAL", "geometry": {"location": {"lat": 25.0232759, "lng": 121.5292759}, "viewport": {"northeast": {"lat": 25.0246260302915, "lng": 121.5306483302915}, "southwest": {"lat": 25.02192806970849, "lng": 121.5279503697085}}}, "icon": "https://maps.gstatic.com/mapfiles/place_api/icons/v1/png_71/restaurant-71.png", "icon_background_color": "#FF9E67", "icon_mask_base_uri": "https://maps.gstatic.com/mapfiles/place_api/icons/v2/restaurant_pinlet", "name": "伊洛瓦底", "opening_hours": {"open_now": false}, "photos": [{"height": 3024, "html_attributions": ["<a href=\"https://maps.google.com/maps/contrib/118099389723688709484\">Phoebe Cho</a>"], "photo_reference": "AZose0kz_rnW9pv23P3VGqvyIzI2b6gbk6EIHc9-2Hvfq-jj0wLXbPqeNFR2_NcfD-lsMvDNjnxCmI6o111DkETUd9RkS8e4qyO9VfxwPmIGjorllM3-UfGFXC2N0M1ydxGVAyIn3xwf6VPYZ26rDUU5B_Z-uYoGN99Q_7M7ufFovvLwCcsN", "width": 4032}], "place_id": "ChIJxc2Wb4-pQjQRarCVcyHWTWQ", "plus_code": {"compound_code": "2GFH+8P 台灣台北市大安區", "global_code": "7QQ32GFH+8P"}, "price_level": 1, "rating": 3.6, "reference": "ChIJxc2Wb4-pQjQRarCVcyHWTWQ", "scope": "GOOGLE", "types": ["restaurant", "point_of_interest", "food", "establishment"], "user_ratings_total": 738, "vicinity": "大安區龍泉街76號"}, {"business_status": "OPERATIONAL", "geometry": {"location": {"lat": 25.029216, "lng": 121.521823}, "viewport": {"northeast": {"lat": 25.0305545802915, "lng": 121.5232324302915}, "southwest": {"lat": 25.0278566197085, "lng": 121.5205344697085}}}, "icon": "https://maps.gstatic.com/mapfiles/place_api/icons/v1/png_71/restaurant-71.png", "icon_background_color": "#FF9E67", "icon_mask_base_uri": "https://maps.gstatic.com/mapfiles/place_api/icons/v2/restaurant_pinlet", "name": "水牛城美式炭烤牛排（古亭）", "opening_hours": {"open_now": false}, "photos": [{"height": 3024, "html_attributions": ["<a href=\"https://maps.google.com/maps/contrib/104177990533750508763\">水牛城美式炭烤牛排（古亭）</a>"], "photo_reference": "AZose0lmTHUPq2UQwmCbMhlvDBsMXrOjS0q5cV1Mm-MehZGP3-LHlSfBSt3YYUqE4nD9jI_kHTPe3Y-YDQTVSBML5hF-zMBtq9NAfu-1OtnaNkSNXGxZxr3yWBlGdk-UhB1ps7-vAm-l87pbpCRH7b-09YORjUq8Ra3EHgKW0AZy3bxt_Eq3", "width": 4032}], "place_id": "ChIJkT9RupupQjQROzXoveyqnmU", "plus_code": {"compound_code": "2GHC+MP 台灣台北市中正區", "global_code": "7QQ32GHC+MP"}, "price_level": 2, "rating": 4.5, "reference": "ChIJkT9RupupQjQROzXoveyqnmU", "scope": "GOOGLE", "types": ["restaurant", "point_of_interest", "food", "establishment"], "user_ratings_total": 3305, "vicinity": "中正區杭州南路二段94號"}, {"business_status": "OPERATIONAL", "geometry": {"location": {"lat": 25.0200278, "lng": 121.5334694}, "viewport": {"northeast": {"lat": 25.0213763802915, "lng": 121.5348183302915}, "southwest": {"lat": 25.0186784197085, "lng": 121.5321203697085}}}, "icon": "https://maps.gstatic.com/mapfiles/place_api/icons/v1/png_71/restaurant-71.png", "icon_background_color": "#FF9E67", "icon_mask_base_uri": "https://maps.gstatic.com/mapfiles/place_api/icons/v2/restaurant_pinlet", "name": "霞飛驛歐法西餐", "opening_hours": {"open_now": false}, "photos": [{"height": 3024, "html_attributions": ["<a href=\"https://maps.google.com/maps/contrib/105475846313273990112\">Jason Wu</a>"], "photo_reference": "AZose0nofKVLdmpQ7Ea-fdqcDqTOQcHXzq7pXvnEhgO2g9Ay_z6kprKqPkY4mszeKsEXpSpKQ1C6C9S2zDQaYB2HPOibpYgmhdAhyd5nrnFZ28CnTgnuwTz86_0C9IPeZNakZAoC950sPR8t7Hsa8qaseOOEG5ADnHMvG7MLNPpuo9LidJFg", "width": 4032}], "place_id": "ChIJNfAt5MSrQjQR-Z8NpMSCkjk", "plus_code": {"compound_code": "2GCM+29 台灣台北市大安區", "global_code": "7QQ32GCM+29"}, "price_level": 2, "rating": 4.2, "reference": "ChIJNfAt5MSrQjQR-Z8NpMSCkjk", "scope": "GOOGLE", "types": ["restaurant", "point_of_interest", "food", "establishment"], "user_ratings_total": 1229, "vicinity": "大安區新生南路三段60巷8號"}, {"business_status": "OPERATIONAL", "geometry": {"location": {"lat": 25.0279286, "lng": 121.5326474}, "viewport": {"northeast": {"lat": 25.0293609302915, "lng": 121.5339956302915}, "southwest": {"lat": 25.0266629697085, "lng": 121.5312976697085}}}, "icon": "https://maps.gstatic.com/mapfiles/place_api/icons/v1/png_71/restaurant-71.png", "icon_background_color": "#FF9E67", "icon_mask_base_uri": "https://maps.gstatic.com/mapfiles/place_api/icons/v2/restaurant_pinlet", "name": "青田七六", "opening_hours": {"open_now": false}, "photos": [{"height": 3204, "html_attributions": ["<a href=\"https://maps.google.com/maps/contrib/110037441500647541557\">青田七六</a>"], "photo_reference": "AZose0nDjoKPcwVoFHQRwtuaH0dNYP_fmzikb_J2cJb9X2FAO9e8bLBpqrxK9XIWBOS4VG-bs8Ndm3FJiT-U9Ih0KQrVGCQ65Zz-e76y_eYdchRJoVC48MrwuYk77pM4hukA7_A3RSSQ-2ZjDkVWg-xv4Ul3ePprFbARdqxndVFyv8XOOb8-", "width": 4798}], "place_id": "ChIJU6Wht4apQjQRYlBcxJ1liEk", "plus_code": {"compound_code": "2GHM+53 台灣台北市大安區", "global_code": "7QQ32GHM+53"}, "price_level": 2, "rating": 4.4, "reference": "ChIJU6Wht4apQjQRYlBcxJ1liEk", "scope": "GOOGLE", "types": ["restaurant", "point_of_interest", "food", "establishment"], "user_ratings_total": 3533, "vicinity": "大安區青田街7巷6號"}, {"business_status": "OPERATIONAL", "geometry": {"location": {"lat": 25.0308284, "lng": 121.5295899}, "viewport": {"northeast": {"lat": 25.0321771302915, "lng": 121.5309129302915}, "southwest": {"lat": 25.0294791697085, "lng": 121.5282149697085}}}, "icon": "https://maps.gstatic.com/mapfiles/place_api/icons/v1/png_71/restaurant-71.png", "icon_background_color": "#FF9E67", "icon_mask_base_uri": "https://maps.gstatic.com/mapfiles/place_api/icons/v2/restaurant_pinlet", "name": "紅蜻蜓食事處", "opening_hours": {"open_now": false},