[{"business_status": "OPERATIONAL", "geometry": {"location": {"lat": 25.0308284, "lng": 121.5295899}, "viewport": {"northeast": {"lat": 25.0321771302915, "lng": 121.5309129302915}, "southwest": {"lat": 25.0294791697085, "lng": 121.5282149697085}}}, "icon": "https://maps.gstatic.com/mapfiles/place_api/icons/v1/png_71/restaurant-71.png", "icon_background_color": "#FF9E67", "icon_mask_base_uri": "https://maps.gstatic.com/mapfiles/place_api/icons/v2/restaurant_pinlet", "name": "紅蜻蜓食事處", "opening_hours": {"open_now": false}, "photos": [{"height": 4080, "html_attributions": ["<a href=\"https://maps.google.com/maps/contrib/113281373333254214697\">Dawei Lin</a>"], "photo_reference": "AZose0k2vPn9ZXton4i1eTESrj3qB5fiJSzOpCV4U4Gv8VelDtUtvRbytXMXBocUOzXEPafnYx8XcR0rLhyFFc1-lSs_CS7nLoai9F_dsUyLBfwdsSoOB5aOARjtTYBs0LZlGrYO4vh13QDj2Pbe32p4QTo-nBhuaBgPWnqFxLMcis-NarcE", "width": 3072}], "place_id": "ChIJT_qVvoOpQjQR0lNQZ4pe94U", "plus_code": {"compound_code": "2GJH+8R 台灣台北市大安區", "global_code": "7QQ32GJH+8R"}, "price_level": 2, "rating": 3.8, "reference": "ChIJT_qVvoOpQjQR0lNQZ4pe94U", "scope": "GOOGLE", "types": ["restaurant", "food", "point_of_interest", "establishment"], "user_ratings_total": 550, "vicinity": "大安區永康街35之1號"}, {"business_status": "OPERATIONAL", "geometry": {"location": {"lat": 25.0329387, "lng": 121.5303821}, "viewport": {"northeast": {"lat": 25.0343023302915, "lng": 121.5317660802915}, "southwest": {"lat": 25.0316043697085, "lng": 121.5290681197085}}}, "icon": "https://maps.gstatic.com/mapfiles/place_api/icons/v1/png_71/restaurant-71.png", "icon_background_color": "#FF9E67", "icon_mask_base_uri": "https://maps.gstatic.com/mapfiles/place_api/icons/v2/restaurant_pinlet", "name": "Focus kitchen肯恩廚房", "opening_hours": {"open_now": false}, "photos": [{"height": 721, "html_attributions": ["<a href=\"https://maps.google.com/maps/contrib/113089202169041948147\">Focus kitchen肯恩廚房</a>"], "photo_reference": "AZose0nShvELP5wfaE3j-WOg6YryM_8EgaoDhnKV8IUHDvFpz6KeyDEYSf94WxBUH4z8yS42bDLpQE4fkWCB33FtRUG1e-1Z4sMzr1uYbv5D43aZMUq5Y0dCbwRuRg7squKLoBs4_-PH50MDhR76_VYldFw8Zi6tVEfdPTpO2gHSh_U7IZTr", "width": 1080}], "place_id": "ChIJ8eWRPYKpQjQRuXQ3tGY9wKo", "plus_code": {"compound_code": "2GMJ+55 台灣台北市大安區", "global_code": "7QQ32GMJ+55"}, "price_level": 2, "rating": 4.3, "reference": "ChIJ8eWRPYKpQjQRuXQ3tGY9wKo", "scope": "GOOGLE", "types": ["restaurant", "food", "point_of_interest", "establishment"], "user_ratings_total": 2339, "vicinity": "大安區信義路二段198巷6號"}, {"business_status": "OPERATIONAL", "geometry": {"location": {"lat": 25.0238934, "lng": 121.5344482}, "viewport": {"northeast": {"lat": 25.0252377802915, "lng": 121.5358479802915}, "southwest": {"lat": 25.0225398197085, "lng": 121.5331500197085}}}, "icon": "https://maps.gstatic.com/mapfiles/place_api/icons/v1/png_71/restaurant-71.png", "icon_background_color": "#FF9E67", "icon_mask_base_uri": "https://maps.gstatic.com/mapfiles/place_api/icons/v2/restaurant_pinlet", "name": "莫宰羊-大安台大店", "opening_hours": {"open_now": false}, "photos": [{"height": 1108, "html_attributions": ["<a href=\"https://maps.google.com/maps/contrib/105974627668361899999\">莫宰羊-大安台大店</a>"], "photo_reference": "AZose0nwgGzU7ajDuMt5tws7lVLWFx1eehxy7EjgodW0p30eiW-npfloazrDx8YJZyr6rV4fvcF9lbNZ5QuHXAJBj6ZfWsIB2-xq1fQCytXj3KJ6jvBY-WBJ_eZfEXpuTo9cGdKWF1-qv8GZ4ZM-1BjvndkWwzPlxYmggrp2j7HBn99fv-I0", "width": 1478}], "place_id": "ChIJ3xl5zIepQjQRGNQknIunDIs", "plus_code": {"compound_code": "2GFM+HQ 台灣台北市大安區", "global_code": "7QQ32GFM+HQ"}, "price_level": 2, "reference": "ChIJ3xl5zIepQjQRGNQknIunDIs", "scope": "GOOGLE", "types": ["restaurant", "food", "point_of_interest", "establishment"], "vicinity": "大安區新生南路三段28號"}, {"business_status": "OPERATIONAL", "geometry": {"location": {"lat": 25.0219485, "lng": 121.5271421}, "viewport": {"northeast": {"lat": 25.02324173029151, "lng": 121.5284337802915}, "southwest": {"lat": 25.0205437697085, "lng": 121.5257358197085}}}, "icon": "https://maps.gstatic.com/mapfiles/place_api/icons/v1/png_71/restaurant-71.png", "icon_background_color": "#FF9E67", "icon_mask_base_uri": "https://maps.gstatic.com/mapfiles/place_api/icons/v2/restaurant_pinlet", "name": "龍涎居雞膳食坊 師大創始店", "opening_hours": {"open_now": false}, "photos": [{"height": 3024, "html_attributions": ["<a href=\"https://maps.google.com/maps/contrib/117161015492918603087\">James Huang</a>"], "photo_reference": "AZose0nk46JnDwP7JRTQ9lI_UUpJkcfMGQnnIT5qOXbPTa6t5nM5m8XqQ0LQIzx3ypvy9Yv6BpyZc1KEjeIpxYrQTk8hqcc-h4fW-U88OJzrjN4mfbEgN9FUQZvp1JHXNA_aLZkgV6ix3nSe49g1hsM9eCPmi64FLPZF_hyUYnSQM5nTl8-y", "width": 4032}], "place_id": "ChIJD_HEZY-pQjQRRtBtmpSmIX8", "plus_code": {"compound_code": "2GCG+QV 台灣台北市大安區", "global_code": "7QQ32GCG+QV"}, "price_level": 2, "rating": 3.8, "reference": "ChIJD_HEZY-pQjQRRtBtmpSmIX8", "scope": "GOOGLE", "types": ["restaurant", "food", "point_of_interest", "establishment"], "user_ratings_total": 835, "vicinity": "大安區羅斯福路三段135號"}, {"business_status": "OPERATIONAL", "geometry": {"location": {"lat": 25.028911, "lng": 121.521357}, "viewport": {"northeast": {"lat": 25.0302128302915, "lng": 121.5226291802915}, "southwest": {"lat": 25.02751486970849, "lng": 121.5199312197085}}}, "icon": "https://maps.gstatic.com/mapfiles/place_api/icons/v1/png_71/restaurant-71.png", "icon_background_color": "#FF9E67", "icon_mask_base_uri": "https://maps.gstatic.com/mapfiles/place_api/icons/v2/restaurant_pinlet", "name": "王品牛排 台北羅斯福店", "opening_hours": {"open_now": false}, "photos": [{"height": 1441, "html_attributions": ["<a href=\"https://maps.google.com/maps/contrib/106777619287197277317\">王品牛排 台北羅斯福店</a>"], "photo_reference": "AZose0kDqtdwIaAHUnFIaItYGrQqLpg9n2UXO9FV4VzBhKQiQ9Z4Uf0ADc0Xo97iwoqW6ULmt0bTtJ0ceOcC5UgPJ4oJKvirLT-f0ikVdpWZ0eBzjNtt7YfS_tIkDmIO7ml43TU8Q5gWi2Z6PqK5Hj7TbexAFvYKTujyoX5XRjv195M1eEXu", "width": 2560}], "place_id": "ChIJwXTajYapQjQRiiVNmhlyrNk", "plus_code": {"compound_code": "2GHC+HG 台灣台北市中正區", "global_code": "7QQ32GHC+HG"}, "price_level": 3, "rating": 4.7, "reference": "ChIJwXTajYapQjQRiiVNmhlyrNk", "scope": "GOOGLE", "types": ["restaurant", "food", "point_of_interest", "establishment"], "user_ratings_total": 3788, "vicinity": "中正區羅斯福路二段9號"}, {"business_status": "OPERATIONAL", "geometry": {"location": {"lat": 25.0232492, "lng": 121.5280963}, "viewport": {"northeast": {"lat": 25.02463738029151, "lng": 121.5294494302915}, "southwest": {"lat": 25.0219394197085, "lng": 121.5267514697085}}}, "icon": "https://maps.gstatic.com/mapfiles/place_api/icons/v1/png_71/restaurant-71.png", "icon_background_color": "#FF9E67", "icon_mask_base_uri": "https://maps.gstatic.com/mapfiles/place_api/icons/v2/restaurant_pinlet", "name": "Vino Vino Caf'e", "opening_hours": {"open_now": false}, "photos": [{"height": 3024, "html_attributions": ["<a href=\"https://maps.google.com/maps/contrib/101297538489290802307\">Crystal 心綺</a>"], "photo_reference": "AZose0nHJh586OQ6DyefqZYIUjQYL20NKjZX-1JCssINfpet1k2zwH-JKiJcGDdQ_q9nubBuu5JGYbTbWNSYX8hz-Tx2_c6yL6hcQ7q8ZnA7e4eQi-4k_BV-xoihBi3OW5xjnMpuRWQHEruXGTzT_j0fVhWrPlO1_dqcjf8TNdCK84DdM6n2", "width": 4032}], "place_id": "ChIJYwytno-pQjQRKSSTLHtRuhY", "plus_code": {"compound_code": "2GFH+76 台灣台北市大安區", "global_code": "7QQ32GFH+76"}, "price_level": 2, "rating": 3.6, "reference": "ChIJYwytno-pQjQRKSSTLHtRuhY", "scope": "GOOGLE", "types": ["restaurant", "food", "point_of_interest", "establishment"], "user_ratings_total": 551, "vicinity": "大安區師大路80巷2號"}, {"business_status": "OPERATIONAL", "geometry": {"location": {"lat": 25.0217776, "lng": 121.5280121}, "viewport": {"northeast": {"lat": 25.02317273029151, "lng": 121.5293922302915}, "southwest": {"lat": 25.0204747697085, "lng": 121.5266942697085}}}, "icon": "https://maps.gstatic.com/mapfiles/place_api/icons/v1/png_71/restaurant-71.png", "icon_background_color": "#FF9E67", "icon_mask_base_uri": "https://maps.gstatic.com/mapfiles/place_api/icons/v2/restaurant_pinlet", "name": "KGB Kiwi Gourmet Burgers", "opening_hours": {"open_now": false}, "photos": [{"height": 816, "html_attributions": ["<a href=\"https://maps.google.com/maps/contrib/118253750421803979454\">KGB Kiwi Gourmet Burgers</a>"], "photo_reference": "AZose0nrhpyfoUgvwSUFKFl0whzkZMA47kZhRGEzG_ZFW-UZhbWPC67SMJnP2qHATjz2oaxCuQdRe3IrqLld-lW9SoIbp6WoEhfM6XFbgvsrOylqAK6u9Rs4flJCZQRQC9LiaJhd5R_AwGApzggb5_ND8O2x5fkCiJuIGIIpzUUHAebUyeUd", "width": 1632}], "place_id": "ChIJNTAArY-pQjQR0G-DgiWp9dc", "plus_code": {"compound_code": "2GCH+P6 台灣台北市大安區", "global_code": "7QQ32GCH+P6"}, "price_level": 2, "rating": 4.1, "reference": "ChIJNTAArY-pQjQR0G-DgiWp9dc", "scope": "GOOGLE", "types": ["restaurant", "food", "point_of_interest", "establishment"], "user_ratings_total": 1413, "vicinity": "大安區師大路114巷5號"}, {"business_status": "OPERATIONAL", "geometry": {"location": {"lat": 25.027535, "lng": 121.522371}, "viewport": {"northeast": {"lat": 25.02881208029151, "lng": 121.5236660802915}, "southwest": {"lat": 25.0261141197085, "lng": 121.5209681197085}}}, "icon": "https://maps.gstatic.com/mapfiles/place_api/icons/v1/png_71/restaurant-71.png", "icon_background_color": "#FF9E67", "icon_mask_base_uri": "https://maps.gstatic.com/mapfiles/place_api/icons/v2/restaurant_pinlet", "name": "麥當勞-羅斯福餐廳", "opening_hours": {"open_now": false}, "photos": [{"height": 3024, "html_attributions": ["<a href=\"https://maps.google.com/maps/contrib/103714456755345789855\">A-Kwon Fang</a>"], "photo_reference": "AZose0nJTBuGOPj27Uts8kDOV0sWmGGh2Mp-k-sPjr2QjUv7ufFvvXvOXA6ZGs961vUANvpi4w2ApdGFot6U56sUREvVHtC1tImLiazVQ6_Xaf8iRYyQn8VG43tD0GfOQAGX5EX6aii9qVxasK-vliWUcnghaj4mnWSUUi8hgxIso19Y0HES", "width": 4032}], "place_id": "ChIJWdQlWpqpQjQRGp8WGVvaLCg", "plus_code": {"compound_code": "2GHC+2W 台灣台北市大安區", "global_code": "7QQ32GHC+2W"}, "price_level": 1, "rating": 3.9, "reference": "ChIJWdQlWpqpQjQRGp8WGVvaLCg", "scope": "GOOGLE", "types": ["restaurant", "food", "point_of_interest", "establishment"], "user_ratings_total": 3736, "vicinity": "大安區羅斯福路二段45號"}, {"business_status": "OPERATIONAL", "geometry": {"location": {"lat": 25.0291957, "lng": 121.5297393}, "viewport": {"northeast": {"lat": 25.0305438302915, "lng": 121.5310652302915}, "southwest": {"lat": 25.0278458697085, "lng": 121.5283672697085}}}, "icon": "https://maps.gstatic.com/mapfiles/place_api/icons/v1/png_71/restaurant-71.png", "icon_background_color": "#FF9E67", "icon_mask_base_uri": "https://maps.gstatic.com/mapfiles/place_api/icons/v2/restaurant_pinlet", "name": "大隱酒食", "opening_hours": {"open_now": false}, "photos": [{"height": 3468, "html_attributions": ["<a href=\"https://maps.google.com/maps/contrib/115273370343630040147\">高速公路</a>"], "photo_reference": "AZose0mSCHIey-bxIUnB8QF4Fj46KTeuZ0Ke6bTBC8Y5FnUP7HGkAYl8wef2wVXo2DcmWCkgVuGhY-RTU4DufPIY8MWL0IBUInW-xHReqLluWfExlVhziDU6btPiEnQAIA-NvbATeL9XMkKrbneZP9CPSi3MSy0edeAj0xLOSaeRryBYdCDj", "width": 4624}], "place_id": "ChIJzeBtdYSpQjQRop5qz3tZxW0", "plus_code": {"compound_code": "2GHH+MV 台灣台北市大安區", "global_code": "7QQ32GHH+MV"}, "price_level": 2, "rating": 3.9, "reference": "ChIJzeBtdYSpQjQRop5qz3tZxW0", "scope": "GOOGLE", "types": ["restaurant", "food", "point_of_interest", "establishment"], "user_ratings_total": 490, "vicinity": "大安區永康街65號"}, {"business_status": "OPERATIONAL", "geometry": {"location": {"lat": 25.024613, "lng": 121.534308}, "viewport": {"northeast": {"lat": 25.0259145802915, "lng": 121.5356543802915}, "southwest": {"lat": 25.0232166197085, "lng": 121.5329564197085}}}, "icon": "https://maps.gstatic.com/mapfiles/place_api/icons/v1/png_71/cafe-71.png", "icon_background_color": "#FF9E67", "icon_mask_base_uri": "https://maps.gstatic.com/mapfiles/place_api/icons/v2/cafe_pinlet", "name": "紫藤廬", "opening_hours": {"open_now": false}, "photos": [{"height": 3024, "html_attributions": ["<a href=\"https://maps.google.com/maps/contrib/112722448768181809243\">Angela Chen</a>"], "photo_reference": "AZose0ms29JQXkpQes0JHJ7EBHXDQ53JUFH4Ipt1zgZjtqCHR2cVgpubvAURctK60Fs1xDHXZLtMFpDlCNG5OvRKh3oIqLnsxb5mXWFzQuCyf4GZ46FwUHMqacT_3TsskfJBBvSUQzHXC9jorMcx1yJbZ9g5x39SUfuGC2Tv9qGgaJy9fKAH", "width": 4032}], "place_id": "ChIJTW8Gs4epQjQRRA0-FAu_O0k", "plus_code": {"compound_code": "2GFM+RP 台灣台北市大安區", "global_code": "7QQ32GFM+RP"}, "price_level": 2, "rating": 4.2, "reference": "ChIJTW8Gs4epQjQRRA0-FAu_O0k", "scope": "GOOGLE", "types": ["tourist_attraction", "cafe", "restaurant", "food", "point_of_interest", "establishment"], "user_ratings_total": 1657, "vicinity": "大安區新生南路三段16巷1號"}, {"business_status": "OPERATIONAL", "geometry": {"location": {"lat": 25.0320601, "lng": 121.529195}, "viewport": {"northeast": {"lat": 25.0333894802915, "lng": 121.5305405302915}, "southwest": {"lat": 25.0306915197085, "lng": 121.5278425697085}}}, "icon": "https://maps.gstatic.com/mapfiles/place_api/icons/v1/png_71/restaurant-71.png", "icon_background_color": "#FF9E67", "icon_mask_base_uri": "https://maps.gstatic.com/mapfiles/place_api/icons/v2/restaurant_pinlet", "name": "樂麵屋 永康店", "opening_hours": {"open_now": false}, "photos": [{"height": 3024, "html_attributions": ["<a href=\"https://maps.google.com/maps/contrib/111299735760035142103\">Ruby Chen</a>"], "photo_reference": "AZose0mZLZqPr-erMq4mN-faU1UekYBUDb0JWejpdoF5SkqDleJZu_0UZnjSXZjwYkXazehyofsLCmweUob_gzyMmVHjgljM5DkfmfmWicszUN5hn4lin1HgXgai8ijWPd2ZrNVOg03BBaoi-ZBp5h1lVMBmd-Z9sAsjS_WbpCKRQF6Z_QZw", "width": 4032}], "place_id": "ChIJibxETYKpQjQRqvJwtszA4AA", "plus_code": {"compound_code": "2GJH+RM 台灣台北市大安區", "global_code": "7QQ32GJH+RM"}, "price_level": 2, "rating": 4.2, "reference": "ChIJibxETYKpQjQRqvJwtszA4AA", "scope": "GOOGLE", "types": ["restaurant", "food", "point_of_interest", "establishment"], "user_ratings_total": 2096, "vicinity": "大安區永康街10巷7號"}, {"business_status": "OPERATIONAL", "geometry": {"location": {"lat": 25.0232252, "lng": 121.5268564}, "viewport": {"northeast": {"lat": 25.0245776302915, "lng": 121.5281772802915}, "southwest": {"lat": 25.0218796697085, "lng": 121.5254793197085}}}, "icon": "https://maps.gstatic.com/mapfiles/place_api/icons/v1/png_71/restaurant-71.png", "icon_background_color": "#FF9E67", "icon_mask_base_uri": "https://maps.gstatic.com/mapfiles/place_api/icons/v2/restaurant_pinlet", "name": "瑪莉珍披薩 師大店", "opening_hours": {"open_now": false}, "photos": [{"height": 1124, "html_attributions": ["<a href=\"https://maps.google.com/maps/contrib/116853803191358348482\">Maryjane Pizza ShiDa 瑪莉珍披薩 師大店</a>"], "photo_reference": "AZose0npCt0uUi-sCGt_N0tGoCcSjvNAkP66JbUqlJM8Z1yxJI2in9WeJ8b5VmEW7ZAzpfAg7Fc3XfQEVE7T_NutynhKEksidbs05v2l804IlhI49c8-jkTmbmkVB9u9S1P5ZW_dlB5wpRWQMuKVdPnswo2nIuphFcqj-7RQ-u1O5yNGx-99", "width": 2048}], "place_id": "ChIJHTQHYI-pQjQRqU4LFb5A6pU", "plus_code": {"compound_code": "2GFG+7P 台灣台北市大安區", "global_code": "7QQ32GFG+7P"}, "price_level": 2, "rating": 4.1, "reference": "ChIJHTQHYI-pQjQRqU4LFb5A6pU", "scope": "GOOGLE", "types": ["restaurant", "food", "point_of_interest", "establishment"], "user_ratings_total": 799, "vicinity": "大安區浦城街33-9號"}, {"business_status": "OPERATIONAL", "geometry": {"location": {"lat": 25.0314083, "lng": 121.5291904}, "viewport": {"northeast": {"lat": 25.0327214302915, "lng": 121.5305332802915}, "southwest": {"lat": 25.0300234697085, "lng": 121.5278353197085}}}, "icon": "https://maps.gstatic.com/mapfiles/place_api/icons/v1/png_71/restaurant-71.png", "icon_background_color": "#FF9E67", "icon_mask_base_uri": "https://maps.gstatic.com/mapfiles/place_api/icons/v2/restaurant_pinlet", "name": "徐羅伐韓國料理", "opening_hours": {"open_now": false}, "photos": [{"height": 3064, "html_attributions": ["<a href=\"https://maps.google.com/maps/contrib/117347621100845170199\">Song-yang Tong</a>"], "photo_reference": "AZose0nRdStAUgM6gzQt4q8hH5yB1fRC-VqiTIC4ygVuxV6xpf4sDXP2Q8_LHqxPf5vRp8qpI_H9QwrF6o0IeIDh5NjO2JAsCVfko03jj16a8j19u0KkKIXVi_HKVvKdupAFAwgo_GPdxK-AY4B9t8P_yyZbGGbFX-b-unb2nBG6xEk6WpCq", "width": 4592}], "place_id": "ChIJNWsYsIOpQjQRoUUPLON1ugE", "plus_code": {"compound_code": "2GJH+HM 台灣台北市大安區", "global_code": "7QQ32GJH+HM"}, "price_level": 2, "rating": 3.5, "reference": "ChIJNWsYsIOpQjQRoUUPLON1ugE", "scope": "GOOGLE", "types": ["restaurant", "food", "point_of_interest", "establishment"], "user_ratings_total": 879, "vicinity": "大安區永康街14巷5號"}, {"business_status": "OPERATIONAL", "geometry": {"location": {"lat": 25.030981, "lng": 121.529095}, "viewport": {"northeast": {"lat": 25.0322928802915, "lng": 121.5304495802915}, "southwest": {"lat": 25.0295949197085, "lng": 121.5277516197085}}}, "icon": "https://maps.gstatic.com/mapfiles/place_api/icons/v1/png_71/restaurant-71.png", "icon_background_color": "#FF9E67", "icon_mask_base_uri": "https://maps.gstatic.com/mapfiles/place_api/icons/v2/restaurant_pinlet", "name": "游壽司麗水店", "opening_hours": {"open_now": false}, "photos": [{"height": 3072, "html_attributions": ["<a href=\"https://maps.google.com/maps/contrib/114632031115996514090\">Ling</a>"], "photo_reference": "AZose0n09mOuTlvy6McY6KGwFESHasJD7GKUv5CTraLQMyNqfEknDkXfl5uFaBXLP5ash1d5htGke63n-hFjgE4CLF6EwOO3VsTgedfurQTwqT9gWc9a6-lntxW5cpDlnjbHtS1bwZKSvI4-A3GnSnrCGi9BmNBw1wthavy8eYPZ-1Je9w_0", "width": 4080}], "place_id": "ChIJy6vPnYOpQjQROLEuho5E-Fk", "plus_code": {"compound_code": "2GJH+9J 台灣台北市大安區", "global_code": "7QQ32GJH+9J"}, "price_level": 2, "rating": 4.7, "reference": "ChIJy6vPnYOpQjQROLEuho5E-Fk", "scope": "GOOGLE", "types": ["restaurant", "food", "point_of_interest", "establishment"], "user_ratings_total": 1508, "vicinity": "大安區麗水街7巷7號"}, {"business_status": "OPERATIONAL", "geometry": {"location": {"lat": 25.0230301, "lng": 121.5286396}, "viewport": {"northeast": {"lat": 25.0243243302915, "lng": 121.5299832302915}, "southwest": {"lat": 25.0216263697085, "lng": 121.5272852697085}}}, "icon": "https://maps.gstatic.com/mapfiles/place_api/icons/v1/png_71/restaurant-71.png", "icon_background_color": "#FF9E67", "icon_mask_base_uri": "https://maps.gstatic.com/mapfiles/place_api/icons/v2/restaurant_pinlet", "name": "Macho Tacos 瑪丘墨式餅舖 (師大 Shida)", "opening_hours": {"open_now": false}, "photos": [{"height": 2268, "html_attributions": ["<a href=\"https://maps.google.com/maps/contrib/109095761152196233529\">Macho Tacos 瑪丘墨式餅舖 (師大 Shida)</a>"], "photo_reference": "AZose0kNVKW4isPRw13LoCFIkQ78JiCfmaUJw9nQtRTOAL8t3971xrsJzEGcn3PsnTSdO8vW7bEQbw7ktLlGdts80aEgucPQ6MeGmW0RibnM7uUC81Lh31Fi3F15uSkFYHhq_tlTnQZDBJ0eh088DYtyh8N7UxA_lz0-jJzv1sWJ7A_Hc4bt", "width": 2268}], "place_id": "ChIJ_68w9Y-pQjQRa2AIDqFvRmc", "plus_code": {"compound_code": "2GFH+6F 台灣台北市大安區", "global_code": "7QQ32GFH+6F"}, "price_level": 2, "rating": 4, "reference": "ChIJ_68w9Y-pQjQRa2AIDqFvRmc", "scope": "GOOGLE", "types": ["restaurant", "food", "point_of_interest", "establishment"], "user_ratings_total": 1562, "vicinity": "大安區師大路93巷1號"}, {"business_status": "OPERATIONAL", "geometry": {"location": {"lat": 25.0245728, "lng": 121.5289434}, "viewport": {"northeast": {"lat": 25.0259651802915, "lng": 121.5302925802915}, "southwest": {"lat": 25.02326721970849, "lng": 121.5275946197085}}}, "icon": "https://maps.gstatic.com/mapfiles/place_api/icons/v1/png_71/restaurant-71.png", "icon_background_color": "#FF9E67", "icon_mask_base_uri": "https://maps.gstatic.com/mapfiles/place_api/icons/v2/restaurant_pinlet", "name": "許記生煎包", "opening_hours": {"open_now": false}, "photos": [{"height": 4032, "html_attributions": ["<a href=\"https://maps.google.com/maps/contrib/106546240017529634528\">SOPHIA</a>"], "photo_reference": "AZose0kzMHLWEYCCN3S4QcXzHnQBj1ckSIWGHyg0RKusDppgBfUDy6E79ypXV-mwasYedxFQ4ShTdQg5M2crE6eDULRaGptDIX7_LKvrxdo3_feSRuqAZqRJE1g3C36JHQtJJbOMMsmHiWBqsynCsUcUIzJZIFrsQ_WEC7U5W2s7XKwLan-G", "width": 3024}], "place_id": "ChIJMd7HkIWpQjQRSTSy995w1ZM", "plus_code": {"compound_code": "2GFH+RH 台灣台北市大安區", "global_code": "7QQ32GFH+RH"}, "price_level": 1, "rating": 3.9, "reference": "ChIJMd7HkIWpQjQRSTSy995w1ZM", "scope": "GOOGLE", "types": ["restaurant", "food", "point_of_interest", "establishment"], "user_ratings_total": 865, "vicinity": "大安區師大路39巷12號"}, {"business_status": "OPERATIONAL", "geometry": {"location": {"lat": 25.0232759, "lng": 121.5292759}, "viewport": {"northeast": {"lat": 25.0246260302915, "lng": 121.5306483302915}, "southwest": {"lat": 25.02192806970849, "lng": 121.5279503697085}}}, "icon": "https://maps.gstatic.com/mapfiles/place_api/icons/v1/png_71/restaurant-71.png", "icon_background_color": "#FF9E67", "icon_mask_base_uri": "https://maps.gstatic.com/mapfiles/place_api/icons/v2/restaurant_pinlet", "name": "伊洛瓦底", "opening_hours": {"open_now": false}, "photos": [{"height": 3024, "html_attributions": ["<a href=\"https://maps.google.com/maps/contrib/118099389723688709484\">Phoebe Cho</a>"], "photo_reference": "AZose0miYb5NyMKQHkuEWn2MA26LP3fJdlUGfEP5v9FuMT2s22YXcJKpgLfC5mcAKJr_4zRhV1AmtZez93c9W6p2eL9Qc7z8rB6oK3zWGP7tohWUNIWv6OJ3z2AxnK6sbR-RQ2JFjliqQyGo_jc2Oj1MrQ4qGsRQnmlX5sKIIKjsRgT9WyMi", "width": 4032}], "place_id": "ChIJxc2Wb4-pQjQRarCVcyHWTWQ", "plus_code": {"compound_code": "2GFH+8P 台灣台北市大安區", "global_code": "7QQ32GFH+8P"}, "price_level": 1, "rating": 3.6, "reference": "ChIJxc2Wb4-pQjQRarCVcyHWTWQ", "scope": "GOOGLE", "types": ["restaurant", "food", "point_of_interest", "establishment"], "user_ratings_total": 738, "vicinity": "大安區龍泉街76號"}, {"business_status": "OPERATIONAL", "geometry": {"location": {"lat": 25.029216, "lng": 121.521823}, "viewport": {"northeast": {"lat": 25.0305545802915, "lng": 121.5232324302915}, "southwest": {"lat": 25.0278566197085, "lng": 121.5205344697085}}}, "icon": "https://maps.gstatic.com/mapfiles/place_api/icons/v1/png_71/restaurant-71.png", "icon_background_color": "#FF9E67", "icon_mask_base_uri": "https://maps.gstatic.com/mapfiles/place_api/icons/v2/restaurant_pinlet", "name": "水牛城美式炭烤牛排（古亭）", "opening_hours": {"open_now": false}, "photos": [{"height": 3024, "html_attributions": ["<a href=\"https://maps.google.com/maps/contrib/104177990533750508763\">水牛城美式炭烤牛排（古亭）</a>"], "photo_reference": "AZose0lYkvWX8oXmEJ0OlFiCC0ZA6PztUL9Lkk_pVRwwI1AQCm7zesceTCaCe4sVQFcorHKnriHgOdkzB_MPv3XVTXILovEYS6_RdWkqzC3-1Qki1Q04laaG6xgXLXDGRP36H40kKIqCwUCR_zneVvCcRSWKRYf6EPsE5AjjOJI4z86bSAfw", "width": 4032}], "place_id": "ChIJkT9RupupQjQROzXoveyqnmU", "plus_code": {"compound_code": "2GHC+MP 台灣台北市中正區", "global_code": "7QQ32GHC+MP"}, "price_level": 2, "rating": 4.5, "reference": "ChIJkT9RupupQjQROzXoveyqnmU", "scope": "GOOGLE", "types": ["restaurant", "food", "point_of_interest", "establishment"], "user_ratings_total": 3305, "vicinity": "中正區杭州南路二段94號"}, {"business_status": "OPERATIONAL", "geometry": {"location": {"lat": 25.0200278, "lng": 121.5334694}, "viewport": {"northeast": {"lat": 25.0213763802915, "lng": 121.5348183302915}, "southwest": {"lat": 25.0186784197085, "lng": 121.5321203697085}}}, "icon": "https://maps.gstatic.com/mapfiles/place_api/icons/v1/png_71/restaurant-71.png", "icon_background_color": "#FF9E67", "icon_mask_base_uri": "https://maps.gstatic.com/mapfiles/place_api/icons/v2/restaurant_pinlet", "name": "霞飛驛歐法西餐", "opening_hours": {"open_now": false}, "photos": [{"height": 3024, "html_attributions": ["<a href=\"https://maps.google.com/maps/contrib/105475846313273990112\">Jason Wu</a>"], "photo_reference": "AZose0kuhmUZ2GRESw-YqF1x4oehjQ6HSQXcSYQI84lAJXTaxqqA3ZYzEJYOF3U2KILWqYxJQJqKFsQANUCbSn-VkqmIm4bT5G2J9vjhUEFKBIzqRP2DalI6poDBNpGjtwm2Hibp56D-fXau64SrVrDdy33Bz09uYhfTYCdqBQ8fyFQ2iAlu", "width": 4032}], "place_id": "ChIJNfAt5MSrQjQR-Z8NpMSCkjk", "plus_code": {"compound_code": "2GCM+29 台灣台北市大安區", "global_code": "7QQ32GCM+29"}, "price_level": 2, "rating": 4.2, "reference": "ChIJNfAt5MSrQjQR-Z8NpMSCkjk", "scope": "GOOGLE", "types": ["restaurant", "food", "point_of_interest", "establishment"], "user_ratings_total": 1229, "vicinity": "大安區新生南路三段60巷8號"}, {"business_status": "OPERATIONAL", "geometry": {"location": {"lat": 25.0279286, "lng": 121.5326474}, "viewport": {"northeast": {"lat": 25.0293609302915, "lng": 121.5339956302915}, "southwest": {"lat": 25.0266629697085, "lng": 121.5312976697085}}}, "icon": "https://maps.gstatic.com/mapfiles/place_api/icons/v1/png_71/restaurant-71.png", "icon_background_color": "#FF9E67", "icon_mask_base_uri": "https://maps.gstatic.com/mapfiles/place_api/icons/v2/restaurant_pinlet", "name": "青田七六", "opening_hours": {"open_now": false}, "photos": [{"height": 3204, "html_attributions": ["<a href=\"https://maps.google.com/maps/contrib/110037441500647541557\">青田七六</a>"], "photo_reference": "AZose0milLa2hTN7MMUDPbv4OlrDzSpOy07MzTfcuCJ2P42bi-yOeb0bJHiaQRyy88grnDOIMJvfw7JzrL5pjK9gzM0TaKTmJ1etZ766M-8bpu3lYUbFz8jjBnubZIGC1FLtiuq7zXVZAh1bqp9c8mvBZ_v90151dyNcN-d7-Tap5MxdhK2s", "width": 4798}], "place_id": "ChIJU6Wht4apQjQRYlBcxJ1liEk", "plus_code": {"compound_code": "2GHM+53 台灣台北市大安區", "global_code": "7QQ32GHM+53"}, "price_level": 2, "rating": 4.4, "reference": "ChIJU6Wht4apQjQRYlBcxJ1liEk", "scope": "GOOGLE", "types": ["restaurant", "food", "point_of_interest", "establishment"], "user_ratings_total": 3533, "vicinity": "大安區青田街7巷6號"}]